[
  {
    "state": "AC",
    "state_name": "Acre",
    "city": "Assis Brasil",
    "hospital_name": "Unidade Mista de Assis Brasil",
    "address": "Rua D. Giocondo Maria Grotti, s/n - Centro",
    "phones": [
      "(68) 3548-1135"
    ],
    "cnes": "2001020",
    "antivenoms": [
      "Botrópico",
      "Fonêutrico",
      "Loxoscélico",
      "Escorpiônico"
    ],
    "source_date": "2025-10-15",
    "lat": -10.94092,
    "lng": -69.567211,
    "geocode_tier": 3
  },
  {
    "state": "AC",
    "state_name": "Acre",
    "city": "Brasiléia",
    "hospital_name": "Hospital de Clínicas Raimundo Chaar",
    "address": "BR 317, km 01, Bairro ALberto Castro s/n",
    "phones": [
      "(68) 3546-3804"
    ],
    "cnes": "2001500",
    "antivenoms": [
      "Botrópico",
      "Laquético",
      "Fonêutrico",
      "Loxoscélico",
      "Escorpiônico"
    ],
    "source_date": "2025-10-15",
    "lat": -11.001041,
    "lng": -68.748789,
    "geocode_tier": 3
  },
  {
    "state": "AC",
    "state_name": "Acre",
    "city": "Cruzeiro do Sul",
    "hospital_name": "Hospital Regional do Juruá",
    "address": "Avenida 25 de Agosto, 5121 - Aeroporto Velho",
    "phones": [
      "(68) 3322-5516"
    ],
    "cnes": "5336171",
    "antivenoms": [
      "Botrópico",
      "Laquético",
      "Fonêutrico",
      "Loxoscélico",
      "Escorpiônico"
    ],
    "source_date": "2025-10-15",
    "lat": -7.595248,
    "lng": -72.683283,
    "geocode_tier": 1
  },
  {
    "state": "AC",
    "state_name": "Acre",
    "city": "Feijó",
    "hospital_name": "Hospital Geral de Feijó",
    "address": "Avenida Mal. Deodoro, s/n - Centro",
    "phones": [
      "(68) 99222-5074"
    ],
    "cnes": "2000636",
    "antivenoms": [
      "Botrópico",
      "Laquético",
      "Fonêutrico",
      "Loxoscélico",
      "Escorpiônico"
    ],
    "source_date": "2025-10-15",
    "lat": -8.172529,
    "lng": -70.360624,
    "geocode_tier": 2
  },
  {
    "state": "AC",
    "state_name": "Acre",
    "city": "Jordão",
    "hospital_name": "Hospital da Família de Jordão",
    "address": "Rua Romildo Magalhães, s/n – Centro",
    "phones": [
      "(68) 3464-1037"
    ],
    "cnes": "5353947",
    "antivenoms": [
      "Botrópico",
      "Fonêutrico",
      "Loxoscélico",
      "Escorpiônico"
    ],
    "source_date": "2025-10-15",
    "lat": -9.19054,
    "lng": -71.94848,
    "geocode_tier": 3
  },
  {
    "state": "AC",
    "state_name": "Acre",
    "city": "Mâncio Lima",
    "hospital_name": "Hospital Dr. Abel Pinheiro Maciel Filho",
    "address": "Avenida Japiim, s/n - Centro",
    "phones": [
      "(68) 99946-0048",
      "(68) 99986-2932"
    ],
    "cnes": "2000083",
    "antivenoms": [
      "Botrópico",
      "Fonêutrico",
      "Loxoscélico",
      "Escorpiônico"
    ],
    "source_date": "2025-10-15",
    "lat": -7.614591,
    "lng": -72.905264,
    "geocode_tier": 3
  },
  {
    "state": "AC",
    "state_name": "Acre",
    "city": "Manoel Urbano",
    "hospital_name": "Unidade Mista de Manuel Urbano",
    "address": "Rua Francisco Freitas, s/n - São José",
    "phones": [
      "(68) 3611-1005"
    ],
    "cnes": "2000970",
    "antivenoms": [
      "Botrópico",
      "Fonêutrico",
      "Loxoscélico",
      "Escorpiônico"
    ],
    "source_date": "2025-10-15",
    "lat": -8.838755,
    "lng": -69.261946,
    "geocode_tier": 3
  },
  {
    "state": "AC",
    "state_name": "Acre",
    "city": "Marechal Thaumaturgo",
    "hospital_name": "Unidade Mista de Marechal Thaumaturgo",
    "address": "Rua 5 de novembro, s/n - Centro",
    "phones": [
      "(68) 3325-1048"
    ],
    "cnes": "2001594",
    "antivenoms": [
      "Botrópico",
      "Fonêutrico",
      "Loxoscélico",
      "Escorpiônico"
    ],
    "source_date": "2025-10-15",
    "lat": -8.947979,
    "lng": -72.787261,
    "geocode_tier": 3
  },
  {
    "state": "AC",
    "state_name": "Acre",
    "city": "Plácido de Castro",
    "hospital_name": "Hospital Dr. Manoel Marinho Monte",
    "address": "Rua Epitácio Pessoa, 550 - Centro",
    "phones": [
      "(68) 3237-1821"
    ],
    "cnes": "2000997",
    "antivenoms": [
      "Botrópico",
      "Fonêutrico",
      "Loxoscélico",
      "Escorpiônico"
    ],
    "source_date": "2025-10-15",
    "lat": -10.323915,
    "lng": -67.18242,
    "geocode_tier": 3
  },
  {
    "state": "AC",
    "state_name": "Acre",
    "city": "Porto Walter",
    "hospital_name": "Unidade Mista de Porto Walter",
    "address": "Rua Mamede Cameli, s/n - Centro",
    "phones": [
      "(68) 8422-2372"
    ],
    "cnes": "5661714",
    "antivenoms": [
      "Botrópico",
      "Fonêutrico",
      "Loxoscélico",
      "Escorpiônico"
    ],
    "source_date": "2025-10-15",
    "lat": -8.268772,
    "lng": -72.744446,
    "geocode_tier": 3
  },
  {
    "state": "AC",
    "state_name": "Acre",
    "city": "Santa Rosa do Purus",
    "hospital_name": "Unidade Mista de Santa Rosa do Purus",
    "address": "Rua Raimundo Fernandes de Moura, s/n - Cidade Nova",
    "phones": [
      "(68) 3615-1056"
    ],
    "cnes": "5858208",
    "antivenoms": [
      "Botrópico",
      "Fonêutrico",
      "Loxoscélico",
      "Escorpiônico"
    ],
    "source_date": "2025-10-15",
    "lat": -9.435487,
    "lng": -70.492611,
    "geocode_tier": 3
  },
  {
    "state": "AC",
    "state_name": "Acre",
    "city": "Sena Madureira",
    "hospital_name": "Hospital João Câncio Fernandes",
    "address": "Rua Quintino Bocaiúva, 1054 - Centro",
    "phones": [
      "(68) 3612-2271"
    ],
    "cnes": "2000865",
    "antivenoms": [
      "Botrópico",
      "Laquético",
      "Fonêutrico",
      "Loxoscélico",
      "Escorpiônico"
    ],
    "source_date": "2025-10-15",
    "lat": -9.067313,
    "lng": -68.658208,
    "geocode_tier": 2
  },
  {
    "state": "AC",
    "state_name": "Acre",
    "city": "Senador Guiomard",
    "hospital_name": "Hospital Dr. Ari Rodrigues",
    "address": "Avenida Eduardo Assmar, 133 - COHAB",
    "phones": [
      "(68) 3232-2667"
    ],
    "cnes": "2000725",
    "antivenoms": [
      "Botrópico",
      "Fonêutrico",
      "Loxoscélico",
      "Escorpiônico"
    ],
    "source_date": "2025-10-15",
    "lat": -10.150919,
    "lng": -67.73595,
    "geocode_tier": 3
  },
  {
    "state": "AC",
    "state_name": "Acre",
    "city": "Tarauacá",
    "hospital_name": "Hospital Dr. Sansão Gomes",
    "address": "Avenida Avelino Leal, 1221 - Copacabana",
    "phones": [
      "(68) 99954-9484"
    ],
    "cnes": "2000121",
    "antivenoms": [
      "Botrópico",
      "Fonêutrico",
      "Loxoscélico",
      "Escorpiônico"
    ],
    "source_date": "2025-10-15",
    "lat": -8.150987,
    "lng": -70.781539,
    "geocode_tier": 1
  },
  {
    "state": "AC",
    "state_name": "Acre",
    "city": "Xapuri",
    "hospital_name": "Hospital Epaminondas Jácome",
    "address": "Rua 6 de Agosto, 240 - Centro",
    "phones": [
      "(68) 3542-2316"
    ],
    "cnes": "2000393",
    "antivenoms": [
      "Botrópico",
      "Fonêutrico",
      "Loxoscélico",
      "Escorpiônico"
    ],
    "source_date": "2025-10-15",
    "lat": -10.651117,
    "lng": -68.50179,
    "geocode_tier": 3
  },
  {
    "state": "AL",
    "state_name": "Alagoas",
    "city": "Delmiro Gouveia",
    "hospital_name": "UPA Delmiro Gouveia",
    "address": "R. Luiz Luna Torres, Delmiro Gouveia",
    "phones": [
      "(82) 98114-0105"
    ],
    "cnes": "7641117",
    "antivenoms": [
      "Botrópico",
      "Crotálico",
      "Laquético",
      "Elapídico",
      "Escorpiônico",
      "Fonêutrico",
      "Lonômico",
      "Loxoscélico"
    ],
    "source_date": "2026-04-09",
    "lat": -9.38714,
    "lng": -38.012658,
    "geocode_tier": 2
  },
  {
    "state": "AL",
    "state_name": "Alagoas",
    "city": "Palmeira Dos Índios",
    "hospital_name": "UPA Palmeira dos Índios",
    "address": "R. Bráulio Montenegro, 2311 - Vila Maria",
    "phones": [
      "(82) 3421-2309"
    ],
    "cnes": "7481624",
    "antivenoms": [
      "Botrópico",
      "Crotálico",
      "Laquético",
      "Elapídico",
      "Escorpiônico",
      "Fonêutrico",
      "Lonômico",
      "Loxoscélico"
    ],
    "source_date": "2026-04-09",
    "lat": -9.423517,
    "lng": -36.64388,
    "geocode_tier": 2
  },
  {
    "state": "AL",
    "state_name": "Alagoas",
    "city": "Pão de Açúcar",
    "hospital_name": "Unid. Mista Djalma G. dos Anjos",
    "address": "Rua Padre José Soares Pinto, 850 - Centro",
    "phones": [
      "(82) 3624-1128"
    ],
    "cnes": "2719290",
    "antivenoms": [
      "Botrópico",
      "Crotálico",
      "Laquético",
      "Elapídico",
      "Escorpiônico",
      "Fonêutrico",
      "Lonômico",
      "Loxoscélico"
    ],
    "source_date": "2026-04-09",
    "lat": -9.749655,
    "lng": -37.432989,
    "geocode_tier": 3
  },
  {
    "state": "AL",
    "state_name": "Alagoas",
    "city": "Penedo",
    "hospital_name": "Unid. de Emergência Enfermeiro Antônio de Jesus",
    "address": "Rua Matheus Ferreira, s/n - Santa Luzia",
    "phones": [
      "(82) 3551-3355"
    ],
    "cnes": "7097794",
    "antivenoms": [
      "Botrópico",
      "Crotálico",
      "Laquético",
      "Elapídico",
      "Escorpiônico",
      "Fonêutrico",
      "Lonômico",
      "Loxoscélico"
    ],
    "source_date": "2026-04-09",
    "lat": -10.287234,
    "lng": -36.581926,
    "geocode_tier": 3
  },
  {
    "state": "AL",
    "state_name": "Alagoas",
    "city": "Piranhas",
    "hospital_name": "Unid. Senador Afonso Farias de Melo",
    "address": "Avenida Maceió, s/n - Xingó",
    "phones": [
      "(82) 3686-1972",
      "(82) 3686-1195"
    ],
    "cnes": "2704544",
    "antivenoms": [
      "Botrópico",
      "Crotálico",
      "Laquético",
      "Elapídico",
      "Escorpiônico",
      "Fonêutrico",
      "Lonômico",
      "Loxoscélico"
    ],
    "source_date": "2026-04-09",
    "lat": -9.602619,
    "lng": -37.771743,
    "geocode_tier": 1
  },
  {
    "state": "AL",
    "state_name": "Alagoas",
    "city": "Santana do Ipanema",
    "hospital_name": "Hospital Regional Dr. Clodolfo Melo",
    "address": "Avenida João Agostinho - Santo Antônio",
    "phones": [
      "(82) 3621-3588"
    ],
    "cnes": "5616298",
    "antivenoms": [
      "Botrópico",
      "Crotálico",
      "Laquético",
      "Elapídico",
      "Escorpiônico",
      "Fonêutrico",
      "Lonômico",
      "Loxoscélico"
    ],
    "source_date": "2026-04-09",
    "lat": -9.374664,
    "lng": -37.257462,
    "geocode_tier": 2
  },
  {
    "state": "AL",
    "state_name": "Alagoas",
    "city": "Maceió",
    "hospital_name": "Hospital Escola Dr. Helvio Auto - HEHA UPA 24 horas Dr Ismar Gatto",
    "address": "Rua Cônego Fernando Lyra, no Trapiche da Barra",
    "phones": [
      "(82) 3315-6826 e (82) 3315-3244"
    ],
    "cnes": "2720035",
    "antivenoms": [
      "Botrópico",
      "Crotálico",
      "Laquético",
      "Elapídico",
      "Escorpiônico",
      "Fonêutrico",
      "Lonômico",
      "Loxoscélico"
    ],
    "source_date": "2026-04-09",
    "lat": -9.647684,
    "lng": -35.733926,
    "geocode_tier": 3
  },
  {
    "state": "AL",
    "state_name": "Alagoas",
    "city": "Maceió",
    "hospital_name": "UPA Galba Novaes",
    "address": "Av. Maceió, 341 - Tabuleiro do Martins, Maceió - AL, 57061- 110",
    "phones": [
      "(82) 3315-3504"
    ],
    "cnes": "4156714",
    "antivenoms": [
      "Escorpiônico"
    ],
    "source_date": "2026-04-09",
    "lat": -9.647684,
    "lng": -35.733926,
    "geocode_tier": 3
  },
  {
    "state": "AL",
    "state_name": "Alagoas",
    "city": "Coruripe",
    "hospital_name": "UPA Coruripe",
    "address": "Praça Dr. Castro Azevedo, 47 Centro",
    "phones": [
      "(82) 99127-1490"
    ],
    "cnes": "7471645",
    "antivenoms": [
      "Botrópico",
      "Crotálico",
      "Laquético",
      "Elapídico",
      "Escorpiônico"
    ],
    "source_date": "2026-04-09",
    "lat": -10.124996,
    "lng": -36.176062,
    "geocode_tier": 3
  },
  {
    "state": "AL",
    "state_name": "Alagoas",
    "city": "Maragogi",
    "hospital_name": "UPA Maragogi",
    "address": "AL-101, 200 - Maragogi, AL, 57955- 000",
    "phones": [
      "(82) 99305-4192"
    ],
    "cnes": "7916043",
    "antivenoms": [
      "Botrópico",
      "Crotálico",
      "Laquético",
      "Elapídico",
      "Escorpiônico"
    ],
    "source_date": "2026-04-09",
    "lat": -9.011828,
    "lng": -35.222512,
    "geocode_tier": 3
  },
  {
    "state": "AL",
    "state_name": "Alagoas",
    "city": "Porto Calvo",
    "hospital_name": "Hospital Regional do Norte",
    "address": "Rua Alto da Forca s/n, Bairro Mangazala, Rodovia AL105 CEP 57900.000.",
    "phones": [
      "(82) 98889-9642"
    ],
    "cnes": "7042671",
    "antivenoms": [
      "Botrópico",
      "Crotálico",
      "Laquético",
      "Elapídico",
      "Escorpiônico"
    ],
    "source_date": "2026-04-09",
    "lat": -9.051401,
    "lng": -35.414275,
    "geocode_tier": 2
  },
  {
    "state": "AL",
    "state_name": "Alagoas",
    "city": "União dos Palmares",
    "hospital_name": "Hospital Regional da Mata",
    "address": "BR-104 - União dos Palmares, AL, 57800- 000",
    "phones": [
      "(82) 3281-9300"
    ],
    "cnes": "7753470",
    "antivenoms": [
      "Botrópico",
      "Crotálico",
      "Laquético",
      "Elapídico",
      "Escorpiônico"
    ],
    "source_date": "2026-04-09",
    "lat": -9.148861,
    "lng": -36.012523,
    "geocode_tier": 2
  },
  {
    "state": "AL",
    "state_name": "Alagoas",
    "city": "Viçosa",
    "hospital_name": "UPA Viçosa",
    "address": "R. Juarez Távora, 57 - Viçosa, AL, 57700-000",
    "phones": [
      "(82) 9954-1345"
    ],
    "cnes": "7099185",
    "antivenoms": [
      "Botrópico",
      "Crotálico",
      "Laquético",
      "Elapídico",
      "Escorpiônico"
    ],
    "source_date": "2026-04-09",
    "lat": -9.371574,
    "lng": -36.241705,
    "geocode_tier": 1
  },
  {
    "state": "AM",
    "state_name": "Amazonas",
    "city": "Alvarães",
    "hospital_name": "Unidade Mista de Alvarães",
    "address": "Estrada Alvarães Nogueira, s/n - Centro",
    "phones": [
      "(97) 3345-1204",
      "(97) 3345-1255"
    ],
    "cnes": "2017768",
    "antivenoms": [
      "Botrópico",
      "Laquético",
      "Fonêutrico",
      "Loxoscélico",
      "Escorpiônico",
      "Elapídico"
    ],
    "source_date": "2025-11-10",
    "lat": -3.215579,
    "lng": -64.814833,
    "geocode_tier": 3
  },
  {
    "state": "AM",
    "state_name": "Amazonas",
    "city": "Amaturá",
    "hospital_name": "Unidade Mista de Amaturá - Hospital Frei Roberto San Severino",
    "address": "Rua Antonieta Zao, s/n - Centro",
    "phones": [
      "(97) 3463-1128"
    ],
    "cnes": "2016648",
    "antivenoms": [
      "Botrópico",
      "Laquético",
      "Fonêutrico",
      "Loxoscélico",
      "Escorpiônico",
      "Elapídico"
    ],
    "source_date": "2025-11-10",
    "lat": -3.364051,
    "lng": -68.199469,
    "geocode_tier": 3
  },
  {
    "state": "AM",
    "state_name": "Amazonas",
    "city": "Anamã",
    "hospital_name": "Unidade Mista de Anamã - Hospital Francisco Sales de Moura",
    "address": "Rua Alvaro Maia, 106 - Centro",
    "phones": [
      "(97) 3356-1239"
    ],
    "cnes": "2017679",
    "antivenoms": [
      "Botrópico",
      "Laquético",
      "Fonêutrico",
      "Loxoscélico",
      "Escorpiônico",
      "Elapídico"
    ],
    "source_date": "2025-11-10",
    "lat": -3.579736,
    "lng": -61.405,
    "geocode_tier": 3
  },
  {
    "state": "AM",
    "state_name": "Amazonas",
    "city": "Anori",
    "hospital_name": "Unidade Hospitalar de Anori - Hospital Darlinda Ribeiro",
    "address": "Avenida N. Sra. do Perpétuo Socorro, s/n - São Sebastião",
    "phones": [
      "(97) 3352-1260"
    ],
    "cnes": "2017379",
    "antivenoms": [
      "Botrópico",
      "Laquético",
      "Fonêutrico",
      "Loxoscélico",
      "Escorpiônico",
      "Elapídico"
    ],
    "source_date": "2025-11-10",
    "lat": -3.743525,
    "lng": -61.66052,
    "geocode_tier": 3
  },
  {
    "state": "AM",
    "state_name": "Amazonas",
    "city": "Apuí",
    "hospital_name": "Unidade Mista de Apuí - Hospital Eduardo Braga",
    "address": "Avenida Engº Talles Monte Razo, s/n - Vila Nova",
    "phones": [
      "(97) 3389-1219"
    ],
    "cnes": "2013282",
    "antivenoms": [
      "Botrópico",
      "Laquético",
      "Fonêutrico",
      "Loxoscélico",
      "Escorpiônico",
      "Elapídico",
      "Crotálico"
    ],
    "source_date": "2025-11-10",
    "lat": -7.194019,
    "lng": -59.883019,
    "geocode_tier": 3
  },
  {
    "state": "AM",
    "state_name": "Amazonas",
    "city": "Atalaia do Norte",
    "hospital_name": "Unidade Mista de Atalaia do Norte - Hospital São Sebastião",
    "address": "Rua Augusto Luzeiro, s/n - Centro",
    "phones": [
      "(97) 3417-1115",
      "(97) 3417-1152"
    ],
    "cnes": "2016672",
    "antivenoms": [
      "Botrópico",
      "Laquético",
      "Fonêutrico",
      "Loxoscélico",
      "Escorpiônico",
      "Elapídico"
    ],
    "source_date": "2025-11-10",
    "lat": -4.365855,
    "lng": -70.190874,
    "geocode_tier": 3
  },
  {
    "state": "AM",
    "state_name": "Amazonas",
    "city": "Atalaia do Norte",
    "hospital_name": "Polo Base Alto Ituí",
    "address": "Comunidade Vida Nova",
    "phones": [],
    "cnes": "7159277",
    "antivenoms": [
      "Botrópico",
      "Laquético",
      "Fonêutrico",
      "Loxoscélico",
      "Escorpiônico"
    ],
    "source_date": "2025-11-10",
    "lat": -4.365855,
    "lng": -70.190874,
    "geocode_tier": 3
  },
  {
    "state": "AM",
    "state_name": "Amazonas",
    "city": "Atalaia do Norte",
    "hospital_name": "Polo Base Médio Curuçá",
    "address": "Comunidade São Sebastião",
    "phones": [],
    "cnes": "7159293",
    "antivenoms": [
      "Botrópico",
      "Laquético",
      "Fonêutrico",
      "Loxoscélico",
      "Escorpiônico"
    ],
    "source_date": "2025-11-10",
    "lat": -4.365855,
    "lng": -70.190874,
    "geocode_tier": 3
  },
  {
    "state": "AM",
    "state_name": "Amazonas",
    "city": "Autazes",
    "hospital_name": "Unidade Mista de Autazes",
    "address": "Rua Francisco Barroncas, s/n - Centro",
    "phones": [
      "(92) 3317-1231",
      "(92) 3317-1335"
    ],
    "cnes": "2013045",
    "antivenoms": [
      "Botrópico",
      "Laquético",
      "Fonêutrico",
      "Loxoscélico",
      "Escorpiônico",
      "Elapídico"
    ],
    "source_date": "2025-11-10",
    "lat": -3.592567,
    "lng": -59.123139,
    "geocode_tier": 1
  },
  {
    "state": "AM",
    "state_name": "Amazonas",
    "city": "Barcelos",
    "hospital_name": "Unidade Mista de Barcelos",
    "address": "Rua Dorval Porto, 1136 - Centro",
    "phones": [
      "(97) 3321-1122"
    ],
    "cnes": "2015242",
    "antivenoms": [
      "Botrópico",
      "Laquético",
      "Fonêutrico",
      "Loxoscélico",
      "Escorpiônico",
      "Elapídico"
    ],
    "source_date": "2025-11-10",
    "lat": -0.972921,
    "lng": -62.925635,
    "geocode_tier": 3
  },
  {
    "state": "AM",
    "state_name": "Amazonas",
    "city": "Barreirinha",
    "hospital_name": "Unidade Mista de Barreirinha",
    "address": "Rua Terra Preta do Castanhal, s/n - São Judas Tadeu",
    "phones": [
      "(92) 3531-8125",
      "(92) 3531-7059"
    ],
    "cnes": "2012022",
    "antivenoms": [
      "Botrópico",
      "Laquético",
      "Fonêutrico",
      "Loxoscélico",
      "Escorpiônico",
      "Elapídico"
    ],
    "source_date": "2025-11-10",
    "lat": -2.798863,
    "lng": -57.067897,
    "geocode_tier": 3
  },
  {
    "state": "AM",
    "state_name": "Amazonas",
    "city": "Barreirinha",
    "hospital_name": "Polo Base Araticum",
    "address": "Rio Andirá",
    "phones": [],
    "cnes": "7406150",
    "antivenoms": [
      "Botrópico",
      "Laquético",
      "Fonêutrico",
      "Loxoscélico",
      "Escorpiônico"
    ],
    "source_date": "2025-11-10",
    "lat": -2.798863,
    "lng": -57.067897,
    "geocode_tier": 3
  },
  {
    "state": "AM",
    "state_name": "Amazonas",
    "city": "Benjamin Constant",
    "hospital_name": "Hospital Geral Dr. Melvino de Jesus",
    "address": "Rua 13 de Maio, 1492 - Coimbra",
    "phones": [
      "(97) 3415-5246",
      "(97) 3415-6240"
    ],
    "cnes": "2016974",
    "antivenoms": [
      "Botrópico",
      "Laquético",
      "Fonêutrico",
      "Loxoscélico",
      "Escorpiônico",
      "Elapídico"
    ],
    "source_date": "2025-11-10",
    "lat": -4.375936,
    "lng": -70.018611,
    "geocode_tier": 2
  },
  {
    "state": "AM",
    "state_name": "Amazonas",
    "city": "Beruri",
    "hospital_name": "Hospital Antonio Ferreira Campos",
    "address": "Avenida Costa e Silva, s/n - São Francisco",
    "phones": [
      "(97) 3351-1142"
    ],
    "cnes": "2016605",
    "antivenoms": [
      "Botrópico",
      "Laquético",
      "Fonêutrico",
      "Loxoscélico",
      "Escorpiônico",
      "Elapídico"
    ],
    "source_date": "2025-11-10",
    "lat": -3.900714,
    "lng": -61.371732,
    "geocode_tier": 3
  },
  {
    "state": "AM",
    "state_name": "Amazonas",
    "city": "Boa Vista do Ramos",
    "hospital_name": "Unidade Mista de Boa Vista do Ramos",
    "address": "Estrada Presidente Figueiredo, s/n - Centro",
    "phones": [
      "(97) 3545-5158",
      "(97) 3545-7179"
    ],
    "cnes": "2016354",
    "antivenoms": [
      "Botrópico",
      "Laquético",
      "Fonêutrico",
      "Loxoscélico",
      "Escorpiônico",
      "Elapídico"
    ],
    "source_date": "2025-11-10",
    "lat": -2.971693,
    "lng": -57.586982,
    "geocode_tier": 3
  },
  {
    "state": "AM",
    "state_name": "Amazonas",
    "city": "Boca do Acre",
    "hospital_name": "Unidade Hospitalar de Boca do Acre",
    "address": "Rua Coronel José Assunção, s/n - Plator do Piquiá",
    "phones": [
      "(97) 3451-2157"
    ],
    "cnes": "2012499",
    "antivenoms": [
      "Botrópico",
      "Laquético",
      "Fonêutrico",
      "Loxoscélico",
      "Escorpiônico",
      "Elapídico"
    ],
    "source_date": "2025-11-10",
    "lat": -8.755349,
    "lng": -67.393087,
    "geocode_tier": 3
  },
  {
    "state": "AM",
    "state_name": "Amazonas",
    "city": "Borba",
    "hospital_name": "Hospital Vó Mundoca",
    "address": "Rua Silverino Nery, s/n - Centro",
    "phones": [
      "(92) 3512-1526",
      "(92) 3512-1104"
    ],
    "cnes": "2012383",
    "antivenoms": [
      "Botrópico",
      "Laquético",
      "Fonêutrico",
      "Loxoscélico",
      "Escorpiônico",
      "Elapídico"
    ],
    "source_date": "2025-11-10",
    "lat": -4.393478,
    "lng": -59.594772,
    "geocode_tier": 3
  },
  {
    "state": "AM",
    "state_name": "Amazonas",
    "city": "Caapiranga",
    "hospital_name": "Unidade Hospitalar Odilon Alves de Araújo",
    "address": "Rua Félix Amorim, s/n - Santa Luzia",
    "phones": [
      "(92) 3364-1040"
    ],
    "cnes": "2016656",
    "antivenoms": [
      "Botrópico",
      "Laquético",
      "Fonêutrico",
      "Loxoscélico",
      "Escorpiônico",
      "Elapídico"
    ],
    "source_date": "2025-11-10",
    "lat": -3.318888,
    "lng": -61.20964,
    "geocode_tier": 3
  },
  {
    "state": "AM",
    "state_name": "Amazonas",
    "city": "Canutama",
    "hospital_name": "Hospital Regional de Canutama Dr. Leonardo Parente",
    "address": "Avenida Botinelly, 213 - Centro",
    "phones": [
      "(97) 3334-1337",
      "(97) 3334-1068"
    ],
    "cnes": "2016419",
    "antivenoms": [
      "Botrópico",
      "Laquético",
      "Fonêutrico",
      "Loxoscélico",
      "Escorpiônico",
      "Elapídico"
    ],
    "source_date": "2025-11-10",
    "lat": -6.533002,
    "lng": -64.383497,
    "geocode_tier": 3
  },
  {
    "state": "AM",
    "state_name": "Amazonas",
    "city": "Carauari",
    "hospital_name": "Hospital Unidade Mista de Carauari",
    "address": "Rua Celino de Menezes, 1672 - Nova República",
    "phones": [
      "(97) 3491-1116",
      "(97) 3491-1350"
    ],
    "cnes": "2017555",
    "antivenoms": [
      "Botrópico",
      "Laquético",
      "Fonêutrico",
      "Loxoscélico",
      "Escorpiônico",
      "Elapídico"
    ],
    "source_date": "2025-11-10",
    "lat": -4.876643,
    "lng": -66.896143,
    "geocode_tier": 3
  },
  {
    "state": "AM",
    "state_name": "Amazonas",
    "city": "Careiro Castanho",
    "hospital_name": "Hospital Deoclécio dos Santos",
    "address": "BR 319 Km 102 - Centro",
    "phones": [
      "(92) 3362-1092",
      "(92) 3362-1137"
    ],
    "cnes": "2017652",
    "antivenoms": [
      "Botrópico",
      "Laquético",
      "Fonêutrico",
      "Loxoscélico",
      "Escorpiônico",
      "Elapídico"
    ],
    "source_date": "2025-11-10",
    "lat": -3.798484,
    "lng": -60.177457,
    "geocode_tier": 3
  },
  {
    "state": "AM",
    "state_name": "Amazonas",
    "city": "Careiro da Várzea",
    "hospital_name": "Unidade Hospitalar de Careiro da Várzea",
    "address": "Rua Walmir Bezerra, Centro",
    "phones": [],
    "cnes": "2016915",
    "antivenoms": [
      "Botrópico",
      "Laquético",
      "Fonêutrico",
      "Loxoscélico",
      "Escorpiônico",
      "Elapídico"
    ],
    "source_date": "2025-11-10",
    "lat": -3.197024,
    "lng": -59.82591,
    "geocode_tier": 3
  },
  {
    "state": "AM",
    "state_name": "Amazonas",
    "city": "Coari",
    "hospital_name": "Hospital Regional de Coari Dr. Odair Carlos Geraldo",
    "address": "Estrada Coari- Mamiá, 490 - Espírito Santo",
    "phones": [
      "(97) 3561-4141"
    ],
    "cnes": "2018136",
    "antivenoms": [
      "Botrópico",
      "Laquético",
      "Fonêutrico",
      "Loxoscélico",
      "Escorpiônico",
      "Elapídico"
    ],
    "source_date": "2025-11-10",
    "lat": -4.088596,
    "lng": -63.143117,
    "geocode_tier": 3
  },
  {
    "state": "AM",
    "state_name": "Amazonas",
    "city": "Codajás",
    "hospital_name": "Hospital João da Silva Bastos",
    "address": "Rua Padre Domingos, s/n - Santa Luzia",
    "phones": [
      "(97) 3353-0090"
    ],
    "cnes": "2019523",
    "antivenoms": [
      "Botrópico",
      "Laquético",
      "Fonêutrico",
      "Loxoscélico",
      "Escorpiônico",
      "Elapídico"
    ],
    "source_date": "2025-11-10",
    "lat": -3.84132,
    "lng": -62.060344,
    "geocode_tier": 3
  },
  {
    "state": "AM",
    "state_name": "Amazonas",
    "city": "Eirunepé",
    "hospital_name": "Unidade Hospitalar de Eirunepé",
    "address": "Rua Padre Hosphel, 1181 - Nossa Senhora Aparecida",
    "phones": [
      "(97) 3481-1428",
      "(97) 3481-3198"
    ],
    "cnes": "2016397",
    "antivenoms": [
      "Botrópico",
      "Laquético",
      "Fonêutrico",
      "Loxoscélico",
      "Escorpiônico",
      "Elapídico"
    ],
    "source_date": "2025-11-10",
    "lat": -6.656765,
    "lng": -69.866161,
    "geocode_tier": 3
  },
  {
    "state": "AM",
    "state_name": "Amazonas",
    "city": "Envira",
    "hospital_name": "Unidade Hospitalar Evaristo Rates da Silva",
    "address": "Rua 27 de julho, 306 - São Francisco",
    "phones": [
      "(97) 3483-1045"
    ],
    "cnes": "2708892",
    "antivenoms": [
      "Botrópico",
      "Laquético",
      "Fonêutrico",
      "Loxoscélico",
      "Escorpiônico",
      "Elapídico"
    ],
    "source_date": "2025-11-10",
    "lat": -7.437889,
    "lng": -70.028143,
    "geocode_tier": 3
  },
  {
    "state": "AM",
    "state_name": "Amazonas",
    "city": "Fonte Boa",
    "hospital_name": "Hospital Regional de Fonte Boa",
    "address": "Rua Ajuricaba, s/n - Centro",
    "phones": [
      "(97) 3423-1690"
    ],
    "cnes": "2017717",
    "antivenoms": [
      "Botrópico",
      "Laquético",
      "Fonêutrico",
      "Loxoscélico",
      "Escorpiônico",
      "Elapídico"
    ],
    "source_date": "2025-11-10",
    "lat": -2.514746,
    "lng": -66.094842,
    "geocode_tier": 3
  },
  {
    "state": "AM",
    "state_name": "Amazonas",
    "city": "Guajará",
    "hospital_name": "Hospital João Miguel da Cruz Barbosa",
    "address": "Rua Presidente Vargas, s/n - Centro",
    "phones": [
      "(97) 3485-1148"
    ],
    "cnes": "2017997",
    "antivenoms": [
      "Botrópico",
      "Laquético",
      "Fonêutrico",
      "Loxoscélico",
      "Escorpiônico",
      "Elapídico"
    ],
    "source_date": "2025-11-10",
    "lat": -7.545593,
    "lng": -72.583277,
    "geocode_tier": 3
  },
  {
    "state": "AM",
    "state_name": "Amazonas",
    "city": "Humaitá",
    "hospital_name": "Hospital Dra. Luiza da Conceição Fernandes",
    "address": "Rua 05 de setembro, 522 - Centro",
    "phones": [
      "(97) 3373-2190",
      "(97) 3373-1104"
    ],
    "cnes": "2017016",
    "antivenoms": [
      "Botrópico",
      "Laquético",
      "Fonêutrico",
      "Loxoscélico",
      "Escorpiônico",
      "Elapídico",
      "Crotálico"
    ],
    "source_date": "2025-11-10",
    "lat": -7.50994,
    "lng": -63.024867,
    "geocode_tier": 3
  },
  {
    "state": "AM",
    "state_name": "Amazonas",
    "city": "Ipixuna",
    "hospital_name": "Unidade Hospitalar de Ipixuna",
    "address": "Avenida João Hercules Primo, s/n - Torre",
    "phones": [
      "(97) 3482-1073",
      "(97) 3482-1067"
    ],
    "cnes": "2013614",
    "antivenoms": [
      "Botrópico",
      "Laquético",
      "Fonêutrico",
      "Loxoscélico",
      "Escorpiônico",
      "Elapídico"
    ],
    "source_date": "2025-11-10",
    "lat": -7.050283,
    "lng": -71.691232,
    "geocode_tier": 3
  },
  {
    "state": "AM",
    "state_name": "Amazonas",
    "city": "Iranduba",
    "hospital_name": "Hospital Hilda Freire",
    "address": "Travessa Juruá, s/n - Centro",
    "phones": [
      "(92) 3367-2302",
      "(92) 3367-2107"
    ],
    "cnes": "2012839",
    "antivenoms": [
      "Botrópico",
      "Laquético",
      "Fonêutrico",
      "Loxoscélico",
      "Escorpiônico",
      "Elapídico"
    ],
    "source_date": "2025-11-10",
    "lat": -3.271151,
    "lng": -60.182805,
    "geocode_tier": 2
  },
  {
    "state": "AM",
    "state_name": "Amazonas",
    "city": "Itacoatiara",
    "hospital_name": "Hospital Regional José Mendes",
    "address": "Rua Castro Leite, 2593 - Iraci",
    "phones": [
      "(92) 3521-4215",
      "(92) 3521-4220"
    ],
    "cnes": "2016923",
    "antivenoms": [
      "Botrópico",
      "Laquético",
      "Fonêutrico",
      "Loxoscélico",
      "Escorpiônico",
      "Elapídico"
    ],
    "source_date": "2025-11-10",
    "lat": -3.14779,
    "lng": -58.446104,
    "geocode_tier": 3
  },
  {
    "state": "AM",
    "state_name": "Amazonas",
    "city": "Itamarati",
    "hospital_name": "Unidade Hospitalar Antonio de Souza Brito",
    "address": "Rua Major Maia, s/n - Centro",
    "phones": [
      "(97) 3484-1072"
    ],
    "cnes": "2013568",
    "antivenoms": [
      "Botrópico",
      "Laquético",
      "Fonêutrico",
      "Loxoscélico",
      "Escorpiônico",
      "Elapídico"
    ],
    "source_date": "2025-11-10",
    "lat": -6.438519,
    "lng": -68.243739,
    "geocode_tier": 3
  },
  {
    "state": "AM",
    "state_name": "Amazonas",
    "city": "Itapiranga",
    "hospital_name": "Hospital Miguel Batista de Oliveira",
    "address": "Rua Bárbara Miranda, s/n - Centro",
    "phones": [
      "(92) 3575-2112"
    ],
    "cnes": "2708906",
    "antivenoms": [
      "Botrópico",
      "Laquético",
      "Fonêutrico",
      "Loxoscélico",
      "Escorpiônico",
      "Elapídico"
    ],
    "source_date": "2025-11-10",
    "lat": -2.74612,
    "lng": -58.025377,
    "geocode_tier": 3
  },
  {
    "state": "AM",
    "state_name": "Amazonas",
    "city": "Japurá",
    "hospital_name": "Hospital Mayara Redman A. Aziz 3º Pelotão Especial de Fronteira do Exército – PEF (Exército 8º BIS)",
    "address": "Avenida Juscelino Kubtscheck, s/n - Centro Comunidade Vila Bitencourt",
    "phones": [
      "(97) 3426-1195"
    ],
    "cnes": "2013495",
    "antivenoms": [
      "Botrópico",
      "Laquético",
      "Fonêutrico",
      "Loxoscélico",
      "Escorpiônico",
      "Elapídico"
    ],
    "source_date": "2025-11-10",
    "lat": -1.880847,
    "lng": -66.996766,
    "geocode_tier": 3
  },
  {
    "state": "AM",
    "state_name": "Amazonas",
    "city": "Juruá",
    "hospital_name": "Unidade Mista de Juruá",
    "address": "Rua Samuel Amaral, 13 - Centro",
    "phones": [
      "(97) 3427-1109"
    ],
    "cnes": "2708914",
    "antivenoms": [
      "Botrópico",
      "Laquético",
      "Fonêutrico",
      "Loxoscélico",
      "Escorpiônico",
      "Elapídico"
    ],
    "source_date": "2025-11-10",
    "lat": -3.474667,
    "lng": -66.062234,
    "geocode_tier": 3
  },
  {
    "state": "AM",
    "state_name": "Amazonas",
    "city": "Jutaí",
    "hospital_name": "Unidade Hospitalar de Jutaí",
    "address": "Rua 7 de março, s/n - Centro",
    "phones": [
      "(97) 3425-1132"
    ],
    "cnes": "2011875",
    "antivenoms": [
      "Botrópico",
      "Laquético",
      "Fonêutrico",
      "Loxoscélico",
      "Escorpiônico",
      "Elapídico"
    ],
    "source_date": "2025-11-10",
    "lat": -2.747148,
    "lng": -66.772126,
    "geocode_tier": 3
  },
  {
    "state": "AM",
    "state_name": "Amazonas",
    "city": "Jutaí",
    "hospital_name": "Polo Base Boca do Biá",
    "address": "Comunidade Boca do Biá",
    "phones": [],
    "cnes": "7340923",
    "antivenoms": [
      "Botrópico",
      "Laquético",
      "Fonêutrico",
      "Loxoscélico",
      "Escorpiônico"
    ],
    "source_date": "2025-11-10",
    "lat": -2.747148,
    "lng": -66.772126,
    "geocode_tier": 3
  },
  {
    "state": "AM",
    "state_name": "Amazonas",
    "city": "Lábrea",
    "hospital_name": "Unidade Mista de Lábrea",
    "address": "Rua Coronel Luiz Gomes, s/n - Centro",
    "phones": [
      "(97) 3331-1465"
    ],
    "cnes": "2012618",
    "antivenoms": [
      "Botrópico",
      "Laquético",
      "Fonêutrico",
      "Loxoscélico",
      "Escorpiônico",
      "Elapídico",
      "Crotálico"
    ],
    "source_date": "2025-11-10",
    "lat": -7.261368,
    "lng": -64.792451,
    "geocode_tier": 3
  },
  {
    "state": "AM",
    "state_name": "Amazonas",
    "city": "Lábrea",
    "hospital_name": "Polo Base Crispim",
    "address": "Terra Indígena Lago Mahara",
    "phones": [],
    "cnes": "9425578",
    "antivenoms": [
      "Botrópico",
      "Laquético",
      "Fonêutrico",
      "Loxoscélico",
      "Escorpiônico"
    ],
    "source_date": "2025-11-10",
    "lat": -7.512802,
    "lng": -65.265531,
    "geocode_tier": 2
  },
  {
    "state": "AM",
    "state_name": "Amazonas",
    "city": "Lábrea",
    "hospital_name": "Polo Base Marrecão",
    "address": "Aldeia Marrecão T I Deni",
    "phones": [],
    "cnes": "9472878",
    "antivenoms": [
      "Botrópico",
      "Laquético",
      "Fonêutrico",
      "Loxoscélico",
      "Escorpiônico"
    ],
    "source_date": "2025-11-10",
    "lat": -6.810508,
    "lng": -66.933039,
    "geocode_tier": 2
  },
  {
    "state": "AM",
    "state_name": "Amazonas",
    "city": "Manacapuru",
    "hospital_name": "Hospital Regional de Manacapuru Lázaro Reis",
    "address": "Estrada Manoel Urbano - KM 83 - São José",
    "phones": [
      "(92) 3361-1907"
    ],
    "cnes": "2013258",
    "antivenoms": [
      "Botrópico",
      "Laquético",
      "Fonêutrico",
      "Loxoscélico",
      "Escorpiônico",
      "Elapídico",
      "Lonômico"
    ],
    "source_date": "2025-11-10",
    "lat": -3.279932,
    "lng": -60.646005,
    "geocode_tier": 1
  },
  {
    "state": "AM",
    "state_name": "Amazonas",
    "city": "Manaquiri",
    "hospital_name": "Hospital Raimundo Rodrigues Irmãos",
    "address": "Rua Bom Pastor, s/n - Centro",
    "phones": [
      "(92) 3363-1323"
    ],
    "cnes": "2011891",
    "antivenoms": [
      "Botrópico",
      "Laquético",
      "Fonêutrico",
      "Loxoscélico",
      "Escorpiônico",
      "Elapídico"
    ],
    "source_date": "2025-11-10",
    "lat": -3.430588,
    "lng": -60.459308,
    "geocode_tier": 3
  },
  {
    "state": "AM",
    "state_name": "Amazonas",
    "city": "Manaus",
    "hospital_name": "Fundação de Medicina Tropical",
    "address": "Avenida Pedro Teixeira, 25 - Dom Pedro I",
    "phones": [
      "(92) 2127-3471"
    ],
    "cnes": "2013606",
    "antivenoms": [
      "Botrópico",
      "Laquético",
      "Fonêutrico",
      "Loxoscélico",
      "Escorpiônico",
      "Elapídico",
      "Lonômico",
      "Crotálico"
    ],
    "source_date": "2025-11-10",
    "lat": -3.085509,
    "lng": -60.031002,
    "geocode_tier": 1
  },
  {
    "state": "AM",
    "state_name": "Amazonas",
    "city": "Manicoré",
    "hospital_name": "Hospital Regional de Manicoré Dr. Hamilton Cidade",
    "address": "Travessa 24 de outubro, s/n - Centro",
    "phones": [
      "(97) 3385-1043",
      "(97) 3385-1040"
    ],
    "cnes": "2014688",
    "antivenoms": [
      "Botrópico",
      "Laquético",
      "Fonêutrico",
      "Loxoscélico",
      "Escorpiônico",
      "Elapídico"
    ],
    "source_date": "2025-11-10",
    "lat": -5.804618,
    "lng": -61.289483,
    "geocode_tier": 3
  },
  {
    "state": "AM",
    "state_name": "Amazonas",
    "city": "Manicoré",
    "hospital_name": "Polo Base Boca do Jauari",
    "address": "Rio Madeira Aldeia Boca do Jauari",
    "phones": [],
    "cnes": "7800339",
    "antivenoms": [
      "Botrópico",
      "Laquético",
      "Fonêutrico",
      "Loxoscélico",
      "Escorpiônico"
    ],
    "source_date": "2025-11-10",
    "lat": -5.804618,
    "lng": -61.289483,
    "geocode_tier": 3
  },
  {
    "state": "AM",
    "state_name": "Amazonas",
    "city": "Maraã",
    "hospital_name": "Unidade Mista de Maraã",
    "address": "Avenida 25 de março, s/n - Centro",
    "phones": [
      "(97) 3428-1099"
    ],
    "cnes": "2017660",
    "antivenoms": [
      "Botrópico",
      "Laquético",
      "Fonêutrico",
      "Loxoscélico",
      "Escorpiônico",
      "Elapídico"
    ],
    "source_date": "2025-11-10",
    "lat": -1.859896,
    "lng": -65.590706,
    "geocode_tier": 2
  },
  {
    "state": "AM",
    "state_name": "Amazonas",
    "city": "Maraã",
    "hospital_name": "Centro de Saude Maximo Maia da Silva O Coruja",
    "address": "Comunidade São Pedro do Cuiu Cuiu",
    "phones": [],
    "cnes": "5625300",
    "antivenoms": [
      "Botrópico",
      "Laquético",
      "Fonêutrico",
      "Loxoscélico",
      "Escorpiônico"
    ],
    "source_date": "2025-11-10",
    "lat": -1.853558,
    "lng": -65.589775,
    "geocode_tier": 3
  },
  {
    "state": "AM",
    "state_name": "Amazonas",
    "city": "Maués",
    "hospital_name": "Hospital Raimunda Francisca Dinelly da Silva",
    "address": "Estrada dos Moraes, 898 - Maresia",
    "phones": [
      "(92) 3542-1112",
      "(92) 3542-3222"
    ],
    "cnes": "2018144",
    "antivenoms": [
      "Botrópico",
      "Laquético",
      "Fonêutrico",
      "Loxoscélico",
      "Escorpiônico",
      "Elapídico"
    ],
    "source_date": "2025-11-10",
    "lat": -3.37958,
    "lng": -57.719607,
    "geocode_tier": 3
  },
  {
    "state": "AM",
    "state_name": "Amazonas",
    "city": "Maués",
    "hospital_name": "Polo Base Nova Esperança",
    "address": "Aldeia Nova Esperança",
    "phones": [],
    "cnes": "7651708",
    "antivenoms": [
      "Botrópico",
      "Laquético",
      "Fonêutrico",
      "Loxoscélico",
      "Escorpiônico"
    ],
    "source_date": "2025-11-10",
    "lat": -3.37958,
    "lng": -57.719607,
    "geocode_tier": 3
  },
  {
    "state": "AM",
    "state_name": "Amazonas",
    "city": "Nhamundá",
    "hospital_name": "Hospital Coronel Pedro Macedo",
    "address": "Rua Senador Álvaro Maia, 23 - Centro",
    "phones": [
      "(92) 3534-7624",
      "(92) 3534-7300"
    ],
    "cnes": "2016540",
    "antivenoms": [
      "Botrópico",
      "Laquético",
      "Fonêutrico",
      "Loxoscélico",
      "Escorpiônico",
      "Elapídico"
    ],
    "source_date": "2025-11-10",
    "lat": -2.192152,
    "lng": -56.711131,
    "geocode_tier": 3
  },
  {
    "state": "AM",
    "state_name": "Amazonas",
    "city": "Nova Olinda do Norte",
    "hospital_name": "Hospital Dr. Galo Manuel Ibañez",
    "address": "Rua 7 de setembro, 364 - Santa Luzia",
    "phones": [
      "(92) 3318-1207",
      "(92) 3318-1227"
    ],
    "cnes": "2011905",
    "antivenoms": [
      "Botrópico",
      "Laquético",
      "Fonêutrico",
      "Loxoscélico",
      "Escorpiônico",
      "Elapídico"
    ],
    "source_date": "2025-11-10",
    "lat": -3.584674,
    "lng": -59.134981,
    "geocode_tier": 1
  },
  {
    "state": "AM",
    "state_name": "Amazonas",
    "city": "Nova Olinda do Norte",
    "hospital_name": "Polo Base Kwatá",
    "address": "Rio Canuma",
    "phones": [],
    "cnes": "5359198",
    "antivenoms": [
      "Botrópico",
      "Laquético",
      "Fonêutrico",
      "Loxoscélico",
      "Escorpiônico"
    ],
    "source_date": "2025-11-10",
    "lat": -3.902448,
    "lng": -58.997807,
    "geocode_tier": 1
  },
  {
    "state": "AM",
    "state_name": "Amazonas",
    "city": "Novo Airão",
    "hospital_name": "Unidade Hospitalar de Novo Airão",
    "address": "Avenida João Tiburtino da Silva, s/n - Centro",
    "phones": [
      "(92) 3365-1535"
    ],
    "cnes": "2708922",
    "antivenoms": [
      "Botrópico",
      "Laquético",
      "Fonêutrico",
      "Loxoscélico",
      "Escorpiônico",
      "Elapídico"
    ],
    "source_date": "2025-11-10",
    "lat": -2.626024,
    "lng": -60.943441,
    "geocode_tier": 3
  },
  {
    "state": "AM",
    "state_name": "Amazonas",
    "city": "Novo Aripuanã",
    "hospital_name": "Hospital Regional de Novo Aripuanã",
    "address": "Rua Raimundo Oliveira, s/n - Tucumã",
    "phones": [
      "(97) 3379-1481",
      "(97) 3379-1101"
    ],
    "cnes": "2019604",
    "antivenoms": [
      "Botrópico",
      "Laquético",
      "Fonêutrico",
      "Loxoscélico",
      "Escorpiônico",
      "Elapídico"
    ],
    "source_date": "2025-11-10",
    "lat": -5.125929,
    "lng": -60.373179,
    "geocode_tier": 3
  },
  {
    "state": "AM",
    "state_name": "Amazonas",
    "city": "Parintins",
    "hospital_name": "Hospital Regional Jofre Matos Cohen",
    "address": "Rua Herberth\nAzevedo, 985 -\nSanta Clara (92) 3533-4158",
    "phones": [],
    "cnes": "3210243",
    "antivenoms": [
      "Botrópico",
      "Laquético",
      "Fonêutrico",
      "Loxoscélico",
      "Escorpiônico",
      "Elapídico",
      "Lonômico"
    ],
    "source_date": "2025-11-10",
    "lat": -2.634457,
    "lng": -56.731932,
    "geocode_tier": 3
  },
  {
    "state": "AM",
    "state_name": "Amazonas",
    "city": "Parintins",
    "hospital_name": "P.S. Denizal Pereira",
    "address": "Rua João Pereira,\ns/n - Agrovila do\nCabori (92) 3532-1069",
    "phones": [],
    "cnes": "3112845",
    "antivenoms": [
      "Botrópico"
    ],
    "source_date": "2025-11-10",
    "lat": -2.634457,
    "lng": -56.731932,
    "geocode_tier": 3
  },
  {
    "state": "AM",
    "state_name": "Amazonas",
    "city": "Pauini",
    "hospital_name": "Ambulatório Municipal Mario Said",
    "address": "Rua 19 de março,\n536 - Cidade Alta (97) 3458-\n1253/1132",
    "phones": [],
    "cnes": "2018381",
    "antivenoms": [
      "Botrópico",
      "Laquético",
      "Fonêutrico",
      "Loxoscélico",
      "Escorpiônico",
      "Elapídico"
    ],
    "source_date": "2025-11-10",
    "lat": -7.712221,
    "lng": -66.999844,
    "geocode_tier": 3
  },
  {
    "state": "AM",
    "state_name": "Amazonas",
    "city": "Presidente Figueiredo",
    "hospital_name": "Hospital Geral Evaldo Neves Falcão",
    "address": "BR 174 Km 107 -\nCentro (92) 3324-1005",
    "phones": [],
    "cnes": "2013320",
    "antivenoms": [
      "Botrópico",
      "Laquético",
      "Fonêutrico",
      "Loxoscélico",
      "Escorpiônico",
      "Elapídico"
    ],
    "source_date": "2025-11-10",
    "lat": -2.048636,
    "lng": -60.023666,
    "geocode_tier": 3
  },
  {
    "state": "AM",
    "state_name": "Amazonas",
    "city": "Presidente Figueiredo",
    "hospital_name": "Hospital de Balbina",
    "address": "Rua Rio Negro, s/n -\nVila de Balbina (92) 3312-1200",
    "phones": [],
    "cnes": "7132026",
    "antivenoms": [
      "Botrópico",
      "Laquético",
      "Fonêutrico",
      "Loxoscélico",
      "Escorpiônico",
      "Elapídico"
    ],
    "source_date": "2025-11-10",
    "lat": -0.779664,
    "lng": -60.081406,
    "geocode_tier": 2
  },
  {
    "state": "AM",
    "state_name": "Amazonas",
    "city": "Presidente Figueiredo",
    "hospital_name": "Hospital de Pitinga",
    "address": "Avenida Cassiterita,\ns/n - Vila do Pitinga (92) 3323-1225",
    "phones": [],
    "cnes": "5928761",
    "antivenoms": [
      "Botrópico"
    ],
    "source_date": "2025-11-10",
    "lat": -0.779664,
    "lng": -60.081406,
    "geocode_tier": 2
  },
  {
    "state": "AM",
    "state_name": "Amazonas",
    "city": "Rio Preto da Eva",
    "hospital_name": "Hospital Thomé de Medeiros Raposo",
    "address": "Rua Gov. Angelo do\nAmaral, s/n -\nCentro (92) 3358-1135",
    "phones": [],
    "cnes": "2708930",
    "antivenoms": [
      "Botrópico",
      "Laquético",
      "Fonêutrico",
      "Loxoscélico",
      "Escorpiônico",
      "Elapídico"
    ],
    "source_date": "2025-11-10",
    "lat": -2.699065,
    "lng": -59.701249,
    "geocode_tier": 3
  },
  {
    "state": "AM",
    "state_name": "Amazonas",
    "city": "Santa Isabel do Rio Negro",
    "hospital_name": "Unidade Mista de Santa Isabel do Rio Negro",
    "address": "Rua Danilo Correa,\ns/n - Centro  (97) 3441- 1944/1138",
    "phones": [],
    "cnes": "2016478",
    "antivenoms": [
      "Botrópico",
      "Laquético",
      "Fonêutrico",
      "Loxoscélico",
      "Escorpiônico",
      "Elapídico"
    ],
    "source_date": "2025-11-10",
    "lat": -0.253026,
    "lng": -64.985463,
    "geocode_tier": 3
  },
  {
    "state": "AM",
    "state_name": "Amazonas",
    "city": "Santa Isabel do Rio Negro",
    "hospital_name": "PB Missão Marauia",
    "address": "Missão Marauia",
    "phones": [],
    "cnes": "9681760",
    "antivenoms": [
      "Botrópico"
    ],
    "source_date": "2025-11-10",
    "lat": 0.454312,
    "lng": -65.070831,
    "geocode_tier": 1
  },
  {
    "state": "AM",
    "state_name": "Amazonas",
    "city": "Santo Antônio do Içá",
    "hospital_name": "Unidade Hospitalar Dom Adalberto Marzzin 3º Pelotão Especial de Fronteira do Exército – PEF (Exército 8º BIS)",
    "address": "Rua Hugo Ribeiro,\ns/n - Santa Etelvina  (97) 3461- 1959/1182 Comunidade\nIpiranga",
    "phones": [],
    "cnes": "3220966",
    "antivenoms": [
      "Botrópico",
      "Laquético",
      "Fonêutrico",
      "Loxoscélico",
      "Escorpiônico",
      "Elapídico"
    ],
    "source_date": "2025-11-10",
    "lat": -3.095443,
    "lng": -67.946279,
    "geocode_tier": 3
  },
  {
    "state": "AM",
    "state_name": "Amazonas",
    "city": "São Gabriel da Cachoeira",
    "hospital_name": "Hospital de Guarnição de São Gabriel da Cachoeira",
    "address": "Rua Quitino de Sá Cavalcante, s/n - Dabarú",
    "phones": [
      "(97) 3471-1413",
      "(97) 3471-1475"
    ],
    "cnes": "4004787",
    "antivenoms": [
      "Botrópico",
      "Laquético",
      "Fonêutrico",
      "Loxoscélico",
      "Escorpiônico",
      "Elapídico"
    ],
    "source_date": "2025-11-10",
    "lat": -0.121271,
    "lng": -67.090655,
    "geocode_tier": 2
  },
  {
    "state": "AM",
    "state_name": "Amazonas",
    "city": "São Gabriel da Cachoeira",
    "hospital_name": "Unidade Mista de Iauaretê",
    "address": "Rua da Missão - Vila de Iauaretê - Área Indígena Iauaretê",
    "phones": [],
    "cnes": "2717387",
    "antivenoms": [
      "Botrópico",
      "Laquético",
      "Fonêutrico",
      "Loxoscélico",
      "Escorpiônico",
      "Elapídico"
    ],
    "source_date": "2025-11-10",
    "lat": -0.124971,
    "lng": -67.081385,
    "geocode_tier": 3
  },
  {
    "state": "AM",
    "state_name": "Amazonas",
    "city": "São Gabriel da Cachoeira",
    "hospital_name": "2º Pelotão Especial de Fronteira do Exército (5º BIS)",
    "address": "Comunidade Querari",
    "phones": [],
    "cnes": "4004752",
    "antivenoms": [
      "Botrópico",
      "Laquético"
    ],
    "source_date": "2025-11-10",
    "lat": -0.124971,
    "lng": -67.081385,
    "geocode_tier": 3
  },
  {
    "state": "AM",
    "state_name": "Amazonas",
    "city": "São Gabriel da Cachoeira",
    "hospital_name": "3º Pelotão Especial de Fronteira do Exército (5º BIS)",
    "address": "Comunidade São Joaquim",
    "phones": [],
    "cnes": "4004744",
    "antivenoms": [
      "Botrópico",
      "Laquético"
    ],
    "source_date": "2025-11-10",
    "lat": -0.123525,
    "lng": -67.125937,
    "geocode_tier": 1
  },
  {
    "state": "AM",
    "state_name": "Amazonas",
    "city": "São Gabriel da Cachoeira",
    "hospital_name": "4º Pelotão Especial de Fronteira do Exército (5º BIS)",
    "address": "Comunidade Cucui",
    "phones": [],
    "cnes": "4004736",
    "antivenoms": [
      "Botrópico",
      "Laquético"
    ],
    "source_date": "2025-11-10",
    "lat": 1.189137,
    "lng": -66.838224,
    "geocode_tier": 1
  },
  {
    "state": "AM",
    "state_name": "Amazonas",
    "city": "São Gabriel da Cachoeira",
    "hospital_name": "5º Pelotão Especial de Fronteira do Exército (5º BIS)",
    "address": "Comunidade Maturacá",
    "phones": [],
    "cnes": "4004760",
    "antivenoms": [
      "Botrópico",
      "Laquético"
    ],
    "source_date": "2025-11-10",
    "lat": 0.626028,
    "lng": -66.140243,
    "geocode_tier": 1
  },
  {
    "state": "AM",
    "state_name": "Amazonas",
    "city": "São Gabriel da Cachoeira",
    "hospital_name": "6º Pelotão Especial de Fronteira do Exército (5º BIS)",
    "address": "Comunidade Pari- Cachoeira - Área Indígena Pari- Cachoeira",
    "phones": [],
    "cnes": "5982146",
    "antivenoms": [
      "Botrópico",
      "Laquético"
    ],
    "source_date": "2025-11-10",
    "lat": -0.124971,
    "lng": -67.081385,
    "geocode_tier": 3
  },
  {
    "state": "AM",
    "state_name": "Amazonas",
    "city": "São Gabriel da Cachoeira",
    "hospital_name": "7º Pelotão Especial de Fronteira do Exército (5º BIS)",
    "address": "Comunidade Tunuí - Área Indígena Tunuí-Cachoeira",
    "phones": [],
    "cnes": "7620187",
    "antivenoms": [
      "Botrópico",
      "Laquético"
    ],
    "source_date": "2025-11-10",
    "lat": -0.124971,
    "lng": -67.081385,
    "geocode_tier": 3
  },
  {
    "state": "AM",
    "state_name": "Amazonas",
    "city": "São Gabriel da Cachoeira",
    "hospital_name": "Polo Base Iauaretê",
    "address": "Vila São Miguel",
    "phones": [],
    "cnes": "9493190",
    "antivenoms": [
      "Botrópico",
      "Laquético",
      "Fonêutrico",
      "Loxoscélico",
      "Escorpiônico"
    ],
    "source_date": "2025-11-10",
    "lat": -0.124971,
    "lng": -67.081385,
    "geocode_tier": 3
  },
  {
    "state": "AM",
    "state_name": "Amazonas",
    "city": "São Gabriel da Cachoeira",
    "hospital_name": "Polo Base Pari-Cachoeira",
    "address": "Rio Tiquie",
    "phones": [],
    "cnes": "9493433",
    "antivenoms": [
      "Botrópico",
      "Laquético",
      "Fonêutrico",
      "Loxoscélico",
      "Escorpiônico"
    ],
    "source_date": "2025-11-10",
    "lat": 0.047341,
    "lng": -68.763596,
    "geocode_tier": 1
  },
  {
    "state": "AM",
    "state_name": "Amazonas",
    "city": "São Paulo de Olivença",
    "hospital_name": "Unidade Mista de São Paulo de Olivença",
    "address": "Rua Monsenhor Evangelista, 309 - Centro",
    "phones": [
      "(97)3431-1482",
      "(97) 3431-1043"
    ],
    "cnes": "2018128",
    "antivenoms": [
      "Botrópico",
      "Laquético",
      "Fonêutrico",
      "Loxoscélico",
      "Escorpiônico",
      "Elapídico"
    ],
    "source_date": "2025-11-10",
    "lat": -3.465063,
    "lng": -68.946846,
    "geocode_tier": 3
  },
  {
    "state": "AM",
    "state_name": "Amazonas",
    "city": "São Paulo de Olivença",
    "hospital_name": "Polo Base Vendaval",
    "address": "Comunidade Vendaval",
    "phones": [],
    "cnes": "6771513",
    "antivenoms": [
      "Botrópico",
      "Laquético",
      "Fonêutrico",
      "Loxoscélico",
      "Escorpiônico"
    ],
    "source_date": "2025-11-10",
    "lat": -3.465063,
    "lng": -68.946846,
    "geocode_tier": 3
  },
  {
    "state": "AM",
    "state_name": "Amazonas",
    "city": "São Sebastião do Uatumã",
    "hospital_name": "Hospital Rosa Fabiana Falabella",
    "address": "Rua Álvaro Maia, s/n - Santa Maria",
    "phones": [
      "(92) 3572-1391",
      "(92) 3572-1107"
    ],
    "cnes": "2011859",
    "antivenoms": [
      "Botrópico",
      "Laquético",
      "Fonêutrico",
      "Loxoscélico",
      "Escorpiônico",
      "Elapídico"
    ],
    "source_date": "2025-11-10",
    "lat": -2.571934,
    "lng": -57.870362,
    "geocode_tier": 3
  },
  {
    "state": "AM",
    "state_name": "Amazonas",
    "city": "Silves",
    "hospital_name": "Unidade Mista Zalina Garcia",
    "address": "Rua Eduardo Garcia, 26 - Centro",
    "phones": [
      "(92) 3528-2156",
      "(92) 3528-2115"
    ],
    "cnes": "2016249",
    "antivenoms": [
      "Botrópico",
      "Laquético",
      "Fonêutrico",
      "Loxoscélico",
      "Escorpiônico",
      "Elapídico"
    ],
    "source_date": "2025-11-10",
    "lat": -2.837261,
    "lng": -58.21052,
    "geocode_tier": 3
  },
  {
    "state": "AM",
    "state_name": "Amazonas",
    "city": "Tabatinga",
    "hospital_name": "Hospital de Guarnição",
    "address": "Avenida da Amizade, s/n - Centro",
    "phones": [
      "(97) 3412-2403"
    ],
    "cnes": "2016125",
    "antivenoms": [
      "Botrópico",
      "Laquético",
      "Fonêutrico",
      "Loxoscélico",
      "Escorpiônico",
      "Elapídico"
    ],
    "source_date": "2025-11-10",
    "lat": -4.232735,
    "lng": -69.926337,
    "geocode_tier": 3
  },
  {
    "state": "AM",
    "state_name": "Amazonas",
    "city": "Tapauá",
    "hospital_name": "Hospital Ana Tereza Ponciana",
    "address": "Avenida Castelo Branco, s/n - Centro",
    "phones": [
      "(97) 3391-1128",
      "(97) 3391-1249"
    ],
    "cnes": "2012553",
    "antivenoms": [
      "Botrópico",
      "Laquético",
      "Fonêutrico",
      "Loxoscélico",
      "Escorpiônico",
      "Elapídico"
    ],
    "source_date": "2025-11-10",
    "lat": -5.623228,
    "lng": -63.187916,
    "geocode_tier": 3
  },
  {
    "state": "AM",
    "state_name": "Amazonas",
    "city": "Tefé",
    "hospital_name": "Hospital Regional de Tefé",
    "address": "Estrada do Bexiga, s/n - Fonte Boa",
    "phones": [
      "(97) 3343-2446",
      "(97) 3343-2469"
    ],
    "cnes": "2016141",
    "antivenoms": [
      "Botrópico",
      "Laquético",
      "Fonêutrico",
      "Loxoscélico",
      "Escorpiônico",
      "Elapídico",
      "Lonômico"
    ],
    "source_date": "2025-11-10",
    "lat": -3.352606,
    "lng": -64.728156,
    "geocode_tier": 2
  },
  {
    "state": "AM",
    "state_name": "Amazonas",
    "city": "Tonantins",
    "hospital_name": "Hospital Frei Francisco",
    "address": "Rua Valentina Santos, s/n - Centro",
    "phones": [
      "(97) 3464-1222"
    ],
    "cnes": "2012804",
    "antivenoms": [
      "Botrópico",
      "Laquético",
      "Fonêutrico",
      "Loxoscélico",
      "Escorpiônico",
      "Elapídico"
    ],
    "source_date": "2025-11-10",
    "lat": -2.860096,
    "lng": -67.772404,
    "geocode_tier": 2
  },
  {
    "state": "AM",
    "state_name": "Amazonas",
    "city": "Uarini",
    "hospital_name": "Hospital Regional Francisco Lopes",
    "address": "Avenida Franco Lopes, s/n - Centro",
    "phones": [
      "(97) 3346-1411"
    ],
    "cnes": "2016443",
    "antivenoms": [
      "Botrópico",
      "Laquético",
      "Fonêutrico",
      "Loxoscélico",
      "Escorpiônico",
      "Elapídico"
    ],
    "source_date": "2025-11-10",
    "lat": -2.982706,
    "lng": -65.157861,
    "geocode_tier": 3
  },
  {
    "state": "AM",
    "state_name": "Amazonas",
    "city": "Urucará",
    "hospital_name": "Unidade Mista de Urucará",
    "address": "Rua Major Lobato Mendes, s/n - Santa Luzia",
    "phones": [
      "(92) 3571-1657"
    ],
    "cnes": "2717395",
    "antivenoms": [
      "Botrópico",
      "Laquético",
      "Fonêutrico",
      "Loxoscélico",
      "Escorpiônico",
      "Elapídico"
    ],
    "source_date": "2025-11-10",
    "lat": -2.537073,
    "lng": -57.759025,
    "geocode_tier": 3
  },
  {
    "state": "AM",
    "state_name": "Amazonas",
    "city": "Urucurituba",
    "hospital_name": "Hospital Silvério Pontes",
    "address": "Rua Armandinho Fernandes, 15 - Centro",
    "phones": [
      "(92) 3524-7137"
    ],
    "cnes": "2016567",
    "antivenoms": [
      "Botrópico",
      "Laquético",
      "Fonêutrico",
      "Loxoscélico",
      "Escorpiônico",
      "Elapídico"
    ],
    "source_date": "2025-11-10",
    "lat": -3.130433,
    "lng": -58.154916,
    "geocode_tier": 3
  },
  {
    "state": "AP",
    "state_name": "Amapá",
    "city": "Cutias",
    "hospital_name": "U.B.S Américo Coelho Pereira",
    "address": "Avenida\nIsaias de\nJesus Leite,\n151 - Centro",
    "phones": [],
    "cnes": "2021021",
    "antivenoms": [
      "Botrópico",
      "Aracnídico",
      "Escorpiônico"
    ],
    "source_date": "2025-11-10",
    "lat": 0.970862,
    "lng": -50.800061,
    "geocode_tier": 3
  },
  {
    "state": "AP",
    "state_name": "Amapá",
    "city": "Laranjal do Jarí",
    "hospital_name": "Hospital Estadual de Laranjal do Jarí",
    "address": "Avenida Tancredo Neves, 2435 - Agreste",
    "phones": [
      "(96) 3621-2719"
    ],
    "cnes": "2020076",
    "antivenoms": [
      "Botrópico",
      "Laquético",
      "Crotálico",
      "Elapídico",
      "Aracnídico",
      "Lonômico"
    ],
    "source_date": "2025-11-10",
    "lat": -0.841901,
    "lng": -52.521207,
    "geocode_tier": 2
  },
  {
    "state": "AP",
    "state_name": "Amapá",
    "city": "Macapá",
    "hospital_name": "Hospital de Emergência Oswaldo Cruz",
    "address": "Rua Hamilton Silva, 139 - Central",
    "phones": [],
    "cnes": "2020653",
    "antivenoms": [
      "Botrópico",
      "Laquético",
      "Crotálico",
      "Elapídico",
      "Aracnídico",
      "Lonômico"
    ],
    "source_date": "2025-11-10",
    "lat": 0.038553,
    "lng": -51.064107,
    "geocode_tier": 1
  },
  {
    "state": "AP",
    "state_name": "Amapá",
    "city": "Macapá",
    "hospital_name": "UPA Zona Norte",
    "address": "Rua: Francisco Alves Corrêa, 1527 - Novo Horizonte",
    "phones": [],
    "cnes": "770916",
    "antivenoms": [
      "Botrópico",
      "Crotálico",
      "Elapídico",
      "Escorpiônico",
      "Lonômico"
    ],
    "source_date": "2025-11-10",
    "lat": 0.040153,
    "lng": -51.056959,
    "geocode_tier": 3
  },
  {
    "state": "AP",
    "state_name": "Amapá",
    "city": "Oiapoque",
    "hospital_name": "Hospital Estadual de Oiapoque",
    "address": "Rua Presidente Kennedy, 700 - Centro",
    "phones": [],
    "cnes": "2021463",
    "antivenoms": [
      "Botrópico",
      "Laquético",
      "Crotálico",
      "Elapídico",
      "Aracnídico",
      "Lonômico"
    ],
    "source_date": "2025-11-10",
    "lat": 3.84328,
    "lng": -51.8377,
    "geocode_tier": 2
  },
  {
    "state": "AP",
    "state_name": "Amapá",
    "city": "Oiapoque",
    "hospital_name": "Companhia Especial de Fronteira - Clevelância do Norte",
    "address": "Clevelândia do Norte, Oiapoque - AP, 68980- 000",
    "phones": [],
    "cnes": "",
    "antivenoms": [
      "Botrópico",
      "Laquético",
      "Crotálico",
      "Elapídico",
      "Aracnídico",
      "Lonômico"
    ],
    "source_date": "2025-11-10",
    "lat": 3.843213,
    "lng": -51.83508,
    "geocode_tier": 3
  },
  {
    "state": "AP",
    "state_name": "Amapá",
    "city": "Porto Grande",
    "hospital_name": "Hospital Municipal Porto Grande",
    "address": "Avenida 8 de Agosto, 336 - Centro",
    "phones": [],
    "cnes": "2019736",
    "antivenoms": [
      "Botrópico",
      "Laquético",
      "Crotálico",
      "Elapídico",
      "Aracnídico",
      "Escorpiônico",
      "Lonômico"
    ],
    "source_date": "2025-11-10",
    "lat": 0.85518,
    "lng": -51.181737,
    "geocode_tier": 2
  },
  {
    "state": "AP",
    "state_name": "Amapá",
    "city": "Santana",
    "hospital_name": "Hospital Estadual de Santana",
    "address": "Rua Salvador Diniz, 187 - Remédios",
    "phones": [],
    "cnes": "2021064",
    "antivenoms": [
      "Botrópico",
      "Laquético",
      "Crotálico",
      "Elapídico",
      "Aracnídico",
      "Lonômico"
    ],
    "source_date": "2025-11-10",
    "lat": -0.043515,
    "lng": -51.172732,
    "geocode_tier": 1
  },
  {
    "state": "AP",
    "state_name": "Amapá",
    "city": "Oiapoque",
    "hospital_name": "UBSI Manga",
    "address": "DSEI AP POLO BASE DE SAUDE INDIGENA MANGA",
    "phones": [],
    "cnes": "2021137",
    "antivenoms": [
      "Botrópico",
      "Laquético",
      "Crotálico",
      "Elapídico",
      "Aracnídico"
    ],
    "source_date": "2025-11-10",
    "lat": 3.843213,
    "lng": -51.83508,
    "geocode_tier": 3
  },
  {
    "state": "AP",
    "state_name": "Amapá",
    "city": "Oiapoque",
    "hospital_name": "UBSI Kumenê",
    "address": "DSEI AP POLO BASE DE SAUDE INDIGENA KUMENÊ",
    "phones": [],
    "cnes": "2021102",
    "antivenoms": [
      "Botrópico",
      "Laquético",
      "Crotálico",
      "Elapídico",
      "Aracnídico"
    ],
    "source_date": "2025-11-10",
    "lat": 3.843213,
    "lng": -51.83508,
    "geocode_tier": 3
  },
  {
    "state": "AP",
    "state_name": "Amapá",
    "city": "Oiapoque",
    "hospital_name": "UBSI Kumarumã",
    "address": "DSEI AP POLO BASE DE SAUDE INDIGENA KUMARUMÃ",
    "phones": [],
    "cnes": "2021110",
    "antivenoms": [
      "Botrópico"
    ],
    "source_date": "2025-11-10",
    "lat": 3.843213,
    "lng": -51.83508,
    "geocode_tier": 3
  },
  {
    "state": "AP",
    "state_name": "Amapá",
    "city": "Pedra Branca",
    "hospital_name": "UBSI Aramirã",
    "address": "DSEI AP POLO BASE DE SAUDE INDIGENA ARAMIRÃ",
    "phones": [],
    "cnes": "2021412",
    "antivenoms": [
      "Botrópico",
      "Laquético",
      "Crotálico",
      "Elapídico",
      "Aracnídico"
    ],
    "source_date": "2025-11-10",
    "lat": 0.777183,
    "lng": -51.952322,
    "geocode_tier": 3
  },
  {
    "state": "BA",
    "state_name": "Bahia",
    "city": "Abaíra",
    "hospital_name": "Hospital Municipal\nOdin Melo",
    "address": "Av. Carlito Costa, 16 -\nCentro",
    "phones": [
      "(77) 3476-2496"
    ],
    "cnes": "6556450",
    "antivenoms": [
      "Botrópico",
      "Crotálico",
      "Elapídico",
      "Laquético",
      "Escorpiônico",
      "Araneídico"
    ],
    "source_date": "2026-01-05",
    "lat": -13.252789,
    "lng": -41.658998,
    "geocode_tier": 2
  },
  {
    "state": "BA",
    "state_name": "Bahia",
    "city": "Abaré",
    "hospital_name": "Hospital Jonival\nLucas da Silva",
    "address": "Rua Dr. Antonio\nMonteiro, 140 - Centro",
    "phones": [
      "(75) 3287-2222",
      "(75) 3287-2470"
    ],
    "cnes": "2304295",
    "antivenoms": [],
    "source_date": "2026-01-05",
    "lat": -8.721612,
    "lng": -39.115449,
    "geocode_tier": 2
  },
  {
    "state": "BA",
    "state_name": "Bahia",
    "city": "Água Fria",
    "hospital_name": "Hospital Maternidade Luis Eduardo Magalhães",
    "address": "Avenida Antonio Sergio\nCarneiro",
    "phones": [],
    "cnes": "2602202",
    "antivenoms": [],
    "source_date": "2026-01-05",
    "lat": -11.874054,
    "lng": -38.763452,
    "geocode_tier": 1
  },
  {
    "state": "BA",
    "state_name": "Bahia",
    "city": "Alagoinhas",
    "hospital_name": "Hospital Regional\nDantas Bião",
    "address": "Rua Dantas Bião, 49 –\nCentro",
    "phones": [
      "(75) 3423-8376",
      "(75) 3421-1004",
      "(75) 3423-1474"
    ],
    "cnes": "2487438",
    "antivenoms": [
      "Botrópico",
      "Crotálico",
      "Elapídico",
      "Escorpiônico",
      "Araneídico"
    ],
    "source_date": "2026-01-05",
    "lat": -12.138225,
    "lng": -38.416726,
    "geocode_tier": 1
  },
  {
    "state": "BA",
    "state_name": "Bahia",
    "city": "Alcobaça",
    "hospital_name": "Hospital Municipal São Bernardo",
    "address": "Rua Nova viçosa, 1083, Jradin Atlantico",
    "phones": [
      "(73) 99936-6008"
    ],
    "cnes": "2304848",
    "antivenoms": [
      "Botrópico",
      "Escorpiônico"
    ],
    "source_date": "2026-01-05",
    "lat": -17.521587,
    "lng": -39.196547,
    "geocode_tier": 3
  },
  {
    "state": "BA",
    "state_name": "Bahia",
    "city": "Amargosa",
    "hospital_name": "Hospital Municipal de Amargosa",
    "address": "Rua Dr. Aloísio Borges, s/n – Santa Rita",
    "phones": [
      "(75) 3634-3573"
    ],
    "cnes": "2414244",
    "antivenoms": [
      "Botrópico",
      "Crotálico",
      "Escorpiônico",
      "Araneídico"
    ],
    "source_date": "2026-01-05",
    "lat": -13.030219,
    "lng": -39.604069,
    "geocode_tier": 3
  },
  {
    "state": "BA",
    "state_name": "Bahia",
    "city": "Anagé",
    "hospital_name": "Hospital Municipal Tavina de Oliveira",
    "address": "Rua Juíz Clarindo Lacerda",
    "phones": [
      "(77) 99908-4933"
    ],
    "cnes": "3827127",
    "antivenoms": [
      "Botrópico",
      "Crotálico",
      "Escorpiônico"
    ],
    "source_date": "2026-01-05",
    "lat": -14.618843,
    "lng": -41.145759,
    "geocode_tier": 1
  },
  {
    "state": "BA",
    "state_name": "Bahia",
    "city": "Andaraí",
    "hospital_name": "Hospital Municipal\nde Andaraí",
    "address": "Av. Paraguassu, 2 -\nCentro",
    "phones": [
      "(75) 3335-2083"
    ],
    "cnes": "4021460",
    "antivenoms": [
      "Botrópico",
      "Crotálico",
      "Elapídico",
      "Escorpiônico",
      "Araneídico"
    ],
    "source_date": "2026-01-05",
    "lat": -12.805967,
    "lng": -41.332292,
    "geocode_tier": 3
  },
  {
    "state": "BA",
    "state_name": "Bahia",
    "city": "Andorinha",
    "hospital_name": "UPA Plabo\nCampos",
    "address": "Rua Ouricuri, Bairro\nCarlos Santana.",
    "phones": [
      "(74) -99107-1325"
    ],
    "cnes": "4021495",
    "antivenoms": [
      "Botrópico",
      "Crotálico",
      "Elapídico",
      "Laquético",
      "Escorpiônico",
      "Araneídico"
    ],
    "source_date": "2026-01-05",
    "lat": -10.344571,
    "lng": -39.833441,
    "geocode_tier": 3
  },
  {
    "state": "BA",
    "state_name": "Bahia",
    "city": "Antas",
    "hospital_name": "Hospital Nossa\nSenhora de Lurdes",
    "address": "Rua do Clube, s/n -\nCentro",
    "phones": [
      "(75) 3277-1147"
    ],
    "cnes": "2799820",
    "antivenoms": [
      "Botrópico",
      "Crotálico",
      "Elapídico",
      "Escorpiônico",
      "Araneídico"
    ],
    "source_date": "2026-01-05",
    "lat": -10.411465,
    "lng": -38.330881,
    "geocode_tier": 3
  },
  {
    "state": "BA",
    "state_name": "Bahia",
    "city": "Antas",
    "hospital_name": "Hospital Santa\nMaria",
    "address": "Rua Dr. Juarez Guerra,\n18 - Centro",
    "phones": [
      "(75) 3277-1163"
    ],
    "cnes": "2799847",
    "antivenoms": [
      "Botrópico",
      "Crotálico",
      "Elapídico",
      "Escorpiônico",
      "Araneídico"
    ],
    "source_date": "2026-01-05",
    "lat": -10.413494,
    "lng": -38.33241,
    "geocode_tier": 1
  },
  {
    "state": "BA",
    "state_name": "Bahia",
    "city": "Araçás",
    "hospital_name": "Unidade Mista\nJulia Trindade Leal",
    "address": "Rua Antonio Paolilo, 54 -\nCentro",
    "phones": [
      "(75) 3451-2162"
    ],
    "cnes": "2512084",
    "antivenoms": [
      "Botrópico",
      "Crotálico",
      "Elapídico",
      "Escorpiônico",
      "Araneídico"
    ],
    "source_date": "2026-01-05",
    "lat": -12.212698,
    "lng": -38.200655,
    "geocode_tier": 3
  },
  {
    "state": "BA",
    "state_name": "Bahia",
    "city": "Araci",
    "hospital_name": "UPA de Araci",
    "address": "Rua José Mota, Centro.\nSN.",
    "phones": [
      "75 92051989"
    ],
    "cnes": "7761112",
    "antivenoms": [],
    "source_date": "2026-01-05",
    "lat": -11.335731,
    "lng": -38.958441,
    "geocode_tier": 2
  },
  {
    "state": "BA",
    "state_name": "Bahia",
    "city": "Baixa Grande",
    "hospital_name": "Hospital Maternidade Milton Pamponet Ribeiro",
    "address": "Rua Dr. Claudionor\nOliveira, 1 - Centro",
    "phones": [
      "(74) 3258-1316"
    ],
    "cnes": "2799766",
    "antivenoms": [],
    "source_date": "2026-01-05",
    "lat": -11.963094,
    "lng": -40.165754,
    "geocode_tier": 3
  },
  {
    "state": "BA",
    "state_name": "Bahia",
    "city": "Barra",
    "hospital_name": "Hospital Municipal Santa Rita",
    "address": "Rua São João, s/n – São João",
    "phones": [
      "(74) 3662-2153",
      "(74) 3662-2449"
    ],
    "cnes": "3048209",
    "antivenoms": [],
    "source_date": "2026-01-05",
    "lat": -11.089179,
    "lng": -43.141451,
    "geocode_tier": 3
  },
  {
    "state": "BA",
    "state_name": "Bahia",
    "city": "Barra da Estiva",
    "hospital_name": "Hospital Suzy\nZanfreta",
    "address": "Rua Padre Gaspar\nBertoni, 51 - Centro",
    "phones": [
      "(77) 3450-1120"
    ],
    "cnes": "2799855",
    "antivenoms": [
      "Botrópico",
      "Crotálico",
      "Elapídico",
      "Escorpiônico",
      "Araneídico"
    ],
    "source_date": "2026-01-05",
    "lat": -13.626966,
    "lng": -41.327829,
    "geocode_tier": 3
  },
  {
    "state": "BA",
    "state_name": "Bahia",
    "city": "Barra do Choça",
    "hospital_name": "Hospital Municipal Dr José Maria de Magalhães Neto",
    "address": "Rua Deocleciano\nMonteiro, s/nº - Centro",
    "phones": [
      "(77) 3436-3025"
    ],
    "cnes": "2722844",
    "antivenoms": [
      "Botrópico",
      "Escorpiônico",
      "Aracnídico"
    ],
    "source_date": "2026-01-05",
    "lat": -14.85991,
    "lng": -40.572814,
    "geocode_tier": 2
  },
  {
    "state": "BA",
    "state_name": "Bahia",
    "city": "Barreiras",
    "hospital_name": "Hospital do Oeste",
    "address": "Rua do Antigo Aeroporto, 1264 - São Pedro",
    "phones": [
      "(77) 3612-9400"
    ],
    "cnes": "3972925",
    "antivenoms": [
      "Botrópico",
      "Crotálico",
      "Elapídico",
      "Escorpiônico",
      "Araneídico"
    ],
    "source_date": "2026-01-05",
    "lat": -12.127568,
    "lng": -45.004411,
    "geocode_tier": 1
  },
  {
    "state": "BA",
    "state_name": "Bahia",
    "city": "Barrocas",
    "hospital_name": "Hospital Municipal\nDr. Jose Maria de\nMagalhaes Neto",
    "address": "Rua Torquato Gomes",
    "phones": [
      "(75)3608-2105"
    ],
    "cnes": "4022416",
    "antivenoms": [],
    "source_date": "2026-01-05",
    "lat": -11.531392,
    "lng": -39.076491,
    "geocode_tier": 1
  },
  {
    "state": "BA",
    "state_name": "Bahia",
    "city": "Belmonte",
    "hospital_name": "Hospital José da Costa Pinto Dantas",
    "address": "Rua Saldanha da Gama,\ns/n - Centro",
    "phones": [
      "(73) 3287-2991"
    ],
    "cnes": "2413922",
    "antivenoms": [
      "Botrópico",
      "Crotálico",
      "Escorpiônico",
      "Araneídico"
    ],
    "source_date": "2026-01-05",
    "lat": -15.858546,
    "lng": -38.882019,
    "geocode_tier": 3
  },
  {
    "state": "BA",
    "state_name": "Bahia",
    "city": "Belo Campo",
    "hospital_name": "Hospital Municipal Vicente Vieira",
    "address": "Rua Pacífico Nunes, 100 - Alvorada",
    "phones": [
      "(77) 3437-2672"
    ],
    "cnes": "2304953",
    "antivenoms": [
      "Aracnídico",
      "Botrópico",
      "Escorpiônico"
    ],
    "source_date": "2026-01-05",
    "lat": -15.037375,
    "lng": -41.266118,
    "geocode_tier": 2
  },
  {
    "state": "BA",
    "state_name": "Bahia",
    "city": "Biritinga",
    "hospital_name": "Unidade Mista de (Hospital Municipal de Biritinga)",
    "address": "Rua Pedro Teixeiras\nBrito, 01 – Centro Boa Vista do Tupim",
    "phones": [
      "(75) 3267-2672",
      "(75) 3267-2364"
    ],
    "cnes": "2644827",
    "antivenoms": [
      "Escorpiônico",
      "Araneídico"
    ],
    "source_date": "2026-01-05",
    "lat": -11.622791,
    "lng": -38.806674,
    "geocode_tier": 3
  },
  {
    "state": "BA",
    "state_name": "Bahia",
    "city": "Biritinga",
    "hospital_name": "Bom Jesus da Lapa",
    "address": "Hospital Municipal Carmela Dutra Hospital Municipal  Rua Júlio José Alves, s/n -\nCentro de Bom Jesus da Serra Hospital Marcus  Av. Brito, s/n - Centro Allan de Castro Rocha Maternidade  Praça Cirlene Baraúna,\ns/n – Centro Municipal Deputado José Carlos Araujo",
    "phones": [
      "Av . Manoel Novais,  (77) 3481-4215 1022 - Centro (77) 3461-1549",
      "(75) 3330-2306",
      "(75) 3343-2137"
    ],
    "cnes": "4022718",
    "antivenoms": [
      "Botrópico",
      "Crotálico",
      "Escorpiônico",
      "Araneídico",
      "Elapídico",
      "Laquético"
    ],
    "source_date": "2026-01-05",
    "lat": -11.622791,
    "lng": -38.806674,
    "geocode_tier": 3
  },
  {
    "state": "BA",
    "state_name": "Bahia",
    "city": "Boquira",
    "hospital_name": "Hospital Municipal\nde Boquira",
    "address": "Hospital  Rua D. Pedro II 77\n9102-5223 Municipal e Maternidade de Botuporã Hospital Municipal  Trav. Milton Galvão, s/n\n- Centro Joana Cajaíba de Andrade",
    "phones": [
      "Praça Delegado Mario  (77) 3645-2033 Rodrigues da Silva, 100 – Centro (77) 98160-4761",
      "(75) 3654-2129"
    ],
    "cnes": "4022807",
    "antivenoms": [
      "Botrópico",
      "Crotálico",
      "Elapídico",
      "Escorpiônico",
      "Araneídico"
    ],
    "source_date": "2026-01-05",
    "lat": -12.818486,
    "lng": -42.727088,
    "geocode_tier": 3
  },
  {
    "state": "BA",
    "state_name": "Bahia",
    "city": "Brotas de Macaúbas",
    "hospital_name": "Unidade Básica de",
    "address": "Praça da Bandeira, 15 – Centro",
    "phones": [
      "(77) 3644-2019"
    ],
    "cnes": "6485235",
    "antivenoms": [
      "Crotálico",
      "Elapídico",
      "Escorpiônico",
      "Araneídico"
    ],
    "source_date": "2026-01-05",
    "lat": -12.001901,
    "lng": -42.625751,
    "geocode_tier": 3
  },
  {
    "state": "BA",
    "state_name": "Bahia",
    "city": "Brumado",
    "hospital_name": "Hospital Municipal",
    "address": "Rua Manoel Fernandes, 87 – Jardim Brasil",
    "phones": [
      "(77) 3441-6780"
    ],
    "cnes": "2386569",
    "antivenoms": [
      "Crotálico",
      "Escorpiônico"
    ],
    "source_date": "2026-01-05",
    "lat": -14.203159,
    "lng": -41.674447,
    "geocode_tier": 1
  },
  {
    "state": "BA",
    "state_name": "Bahia",
    "city": "Buritirama",
    "hospital_name": "Hospital",
    "address": "Av. Prefeito Arival Viana, 716 - Centro",
    "phones": [
      "(77) 3442-2179",
      "(77) 3442-2144"
    ],
    "cnes": "2386674",
    "antivenoms": [
      "Crotálico",
      "Elapídico",
      "Escorpiônico",
      "Araneídico"
    ],
    "source_date": "2026-01-05",
    "lat": -10.714842,
    "lng": -43.636233,
    "geocode_tier": 3
  },
  {
    "state": "BA",
    "state_name": "Bahia",
    "city": "Caatiba",
    "hospital_name": "Hospital Municipal de Caatiba",
    "address": "Rua Augusto Asterio, s/n - Centro",
    "phones": [],
    "cnes": "2386739",
    "antivenoms": [
      "Crotálico",
      "Elapídico",
      "Laquético",
      "Escorpiônico",
      "Araneídico"
    ],
    "source_date": "2026-01-05",
    "lat": -14.978596,
    "lng": -40.409367,
    "geocode_tier": 2
  },
  {
    "state": "BA",
    "state_name": "Bahia",
    "city": "Cachoeira",
    "hospital_name": "Hospital São João",
    "address": "Praça Dr. Aristides Milton, s/n - Centro",
    "phones": [
      "(75) 3425-4040",
      "(75) 3425-4000"
    ],
    "cnes": "2386879",
    "antivenoms": [
      "Crotálico",
      "Elapídico",
      "Escorpiônico",
      "Araneídico"
    ],
    "source_date": "2026-01-05",
    "lat": -12.599826,
    "lng": -38.966592,
    "geocode_tier": 3
  },
  {
    "state": "BA",
    "state_name": "Bahia",
    "city": "Caém",
    "hospital_name": "Hospital Municipal Drª Josefa Monteiro de Caetanos",
    "address": "Av. Dr. Brouteles, s/n - Centro Bairro Terra Branca",
    "phones": [
      "(74) 3636-2212 6657"
    ],
    "cnes": "4023463",
    "antivenoms": [
      "Crotálico"
    ],
    "source_date": "2026-01-05",
    "lat": -11.091133,
    "lng": -40.431697,
    "geocode_tier": 3
  },
  {
    "state": "BA",
    "state_name": "Bahia",
    "city": "Caetité",
    "hospital_name": "UPA de Caetité",
    "address": "Rodovia Caetité- Guanambi, s/n - Rancho Alegre",
    "phones": [
      "(77) 3454-8061"
    ],
    "cnes": "2557096",
    "antivenoms": [
      "Botrópico",
      "Crotálico",
      "Elapídico",
      "Escorpiônico",
      "Araneídico"
    ],
    "source_date": "2026-01-05",
    "lat": -14.065701,
    "lng": -42.47967,
    "geocode_tier": 2
  },
  {
    "state": "BA",
    "state_name": "Bahia",
    "city": "Caldeirão Grande",
    "hospital_name": "Hospital Municipal\nJoão Durval\nCarneiro",
    "address": "Av. Castro Alves, s/n -\nCentro",
    "phones": [
      "(74) 3634 2426"
    ],
    "cnes": "4023536",
    "antivenoms": [],
    "source_date": "2026-01-05",
    "lat": -11.020848,
    "lng": -40.304139,
    "geocode_tier": 3
  },
  {
    "state": "BA",
    "state_name": "Bahia",
    "city": "Camacan",
    "hospital_name": "Hospital Dr. Osvaldo Valverde (Fundação Hospital da Mata Atlântica)",
    "address": "Colina das Laranjeiras,\n11 - Térreo - Centro",
    "phones": [
      "(73) 3283-1788"
    ],
    "cnes": "2601710",
    "antivenoms": [],
    "source_date": "2026-01-05",
    "lat": -15.414843,
    "lng": -39.496673,
    "geocode_tier": 3
  },
  {
    "state": "BA",
    "state_name": "Bahia",
    "city": "Camaçari",
    "hospital_name": "HGC - Hospital\nGeral de Camaçari",
    "address": "Av. Jorge Amado, s/n, Via Parafuso - Jardim Limoeiro",
    "phones": [
      "(71) 3621-2277"
    ],
    "cnes": "2388057",
    "antivenoms": [
      "Botrópico",
      "Crotálico",
      "Elapídico",
      "Laquético",
      "Escorpiônico",
      "Araneídico"
    ],
    "source_date": "2026-01-05",
    "lat": -12.699819,
    "lng": -38.326076,
    "geocode_tier": 3
  },
  {
    "state": "BA",
    "state_name": "Bahia",
    "city": "Camamu",
    "hospital_name": "Hospital Municipal de Camamu (Unidade Mista de Ernesto)",
    "address": "Rua Coronel Francisco\nMagno, s/n - Centro",
    "phones": [
      "(73) 3255-1798"
    ],
    "cnes": "2387514",
    "antivenoms": [],
    "source_date": "2026-01-05",
    "lat": -13.943814,
    "lng": -39.106092,
    "geocode_tier": 3
  },
  {
    "state": "BA",
    "state_name": "Bahia",
    "city": "Campo Alegre de Lourdes",
    "hospital_name": "Hospital Municipal de Campo Alegre de Lourdes",
    "address": "Rua Coronel Lindolfo Dias, s/n - Pedro Alcântara",
    "phones": [
      "(74) 3533-2264"
    ],
    "cnes": "6600476",
    "antivenoms": [
      "Botrópico",
      "Crotálico",
      "Elapídico",
      "Escorpiônico",
      "Araneídico"
    ],
    "source_date": "2026-01-05",
    "lat": -9.516033,
    "lng": -43.010134,
    "geocode_tier": 3
  },
  {
    "state": "BA",
    "state_name": "Bahia",
    "city": "Campo Formoso",
    "hospital_name": "União Hospitalar\nSão Francisco",
    "address": "Praça Frei Lino Grasiage,\n258 - Centro",
    "phones": [
      "(74) 3645-1217"
    ],
    "cnes": "2799839",
    "antivenoms": [
      "Botrópico",
      "Crotálico",
      "Elapídico",
      "Laquético",
      "Escorpiônico",
      "Araneídico"
    ],
    "source_date": "2026-01-05",
    "lat": -10.51055,
    "lng": -40.320031,
    "geocode_tier": 3
  },
  {
    "state": "BA",
    "state_name": "Bahia",
    "city": "Canápolis",
    "hospital_name": "Hospital Municipal Mãe Simoa",
    "address": "Av. Faustino de Queiroz, s/n - Centro",
    "phones": [
      "(77) 3687-2190"
    ],
    "cnes": "2602571",
    "antivenoms": [
      "Botrópico",
      "Crotálico",
      "Escorpiônico",
      "Araneídico"
    ],
    "source_date": "2026-01-05",
    "lat": -13.072454,
    "lng": -44.200949,
    "geocode_tier": 3
  },
  {
    "state": "BA",
    "state_name": "Bahia",
    "city": "Canavieiras",
    "hospital_name": "Hospital Municipal Régis Pacheco",
    "address": "Avenida ACM- s/n- Centro",
    "phones": [
      "(73) 3284-2458"
    ],
    "cnes": "2804042",
    "antivenoms": [
      "Botrópico"
    ],
    "source_date": "2026-01-05",
    "lat": -15.672389,
    "lng": -38.946489,
    "geocode_tier": 2
  },
  {
    "state": "BA",
    "state_name": "Bahia",
    "city": "Candeias",
    "hospital_name": "Hospital Municipal de Candeias",
    "address": "Loteamento Jardim Ouro Negro, s/n - Ouro Negro",
    "phones": [
      "(71) 3601-1814"
    ],
    "cnes": "2387581",
    "antivenoms": [
      "Botrópico",
      "Crotálico",
      "Escorpiônico",
      "Araneídico"
    ],
    "source_date": "2026-01-05",
    "lat": -12.669381,
    "lng": -38.540646,
    "geocode_tier": 3
  },
  {
    "state": "BA",
    "state_name": "Bahia",
    "city": "Cândido Sales",
    "hospital_name": "Hospital Municipal Luis Eduardo Magalhães",
    "address": "Rua José Porto, s/n -\nNova Conquista",
    "phones": [
      "(77) 3438-1384"
    ],
    "cnes": "2387700",
    "antivenoms": [
      "Botrópico",
      "Crotálico",
      "Araneídico"
    ],
    "source_date": "2026-01-05",
    "lat": -15.504992,
    "lng": -41.238072,
    "geocode_tier": 3
  },
  {
    "state": "BA",
    "state_name": "Bahia",
    "city": "Cansanção",
    "hospital_name": "Hospital Municipal Senhora Santana",
    "address": "Rua Luis Gomes Buraqueira, 170 - Centro",
    "phones": [
      "(75) 3274-1023",
      "(75) 3274-1220"
    ],
    "cnes": "2387719",
    "antivenoms": [],
    "source_date": "2026-01-05",
    "lat": -10.669107,
    "lng": -39.498571,
    "geocode_tier": 2
  },
  {
    "state": "BA",
    "state_name": "Bahia",
    "city": "Canudos",
    "hospital_name": "Hospital Municipal Genário Rabelo de Alcântara Pronto Atendimento 24h",
    "address": "A. Enoque Canário\nAraújo, S/N- Centro",
    "phones": [
      "(75)3494 2165"
    ],
    "cnes": "2597586",
    "antivenoms": [
      "Botrópico",
      "Crotálico",
      "Escorpiônico",
      "Aracnídico"
    ],
    "source_date": "2026-01-05",
    "lat": -9.894794,
    "lng": -39.027436,
    "geocode_tier": 3
  },
  {
    "state": "BA",
    "state_name": "Bahia",
    "city": "Carinhanha",
    "hospital_name": "Hospital Municipal\nde Carinhana",
    "address": "Rua Francisco Timóteo,\ns/n - Centro",
    "phones": [
      "(77) 3485-2038"
    ],
    "cnes": "4024303",
    "antivenoms": [
      "Botrópico",
      "Crotálico",
      "Elapídico",
      "Escorpiônico",
      "Araneídico"
    ],
    "source_date": "2026-01-05",
    "lat": -14.298524,
    "lng": -43.772349,
    "geocode_tier": 3
  },
  {
    "state": "BA",
    "state_name": "Bahia",
    "city": "Casa Nova",
    "hospital_name": "Hospital Municipal\nde Casa Nova",
    "address": "Rua 02, s/n - Centro",
    "phones": [
      "(74) 3536-2261"
    ],
    "cnes": "2388928",
    "antivenoms": [
      "Botrópico",
      "Crotálico",
      "Elapídico",
      "Escorpiônico",
      "Araneídico"
    ],
    "source_date": "2026-01-05",
    "lat": -9.173678,
    "lng": -40.973447,
    "geocode_tier": 3
  },
  {
    "state": "BA",
    "state_name": "Bahia",
    "city": "Castro Alves",
    "hospital_name": "Hospital Regional de Castro Alves",
    "address": "Conjunto Urbis l, s/n - Centro",
    "phones": [
      "(75) 3522-1410"
    ],
    "cnes": "2602075",
    "antivenoms": [
      "Botrópico",
      "Escorpiônico",
      "Araneídico"
    ],
    "source_date": "2026-01-05",
    "lat": -12.765529,
    "lng": -39.437228,
    "geocode_tier": 2
  },
  {
    "state": "BA",
    "state_name": "Bahia",
    "city": "Catu",
    "hospital_name": "Hospital Municipal\nde Catu",
    "address": "Rua Geonísio Barroso,\ns/n - Boa Vista",
    "phones": [
      "(71) 3641-2742",
      "(71) 3641-2185"
    ],
    "cnes": "2388685",
    "antivenoms": [
      "Botrópico",
      "Crotálico",
      "Elapídico",
      "Escorpiônico",
      "Araneídico"
    ],
    "source_date": "2026-01-05",
    "lat": -12.351274,
    "lng": -38.379108,
    "geocode_tier": 3
  },
  {
    "state": "BA",
    "state_name": "Bahia",
    "city": "Caturama",
    "hospital_name": "Hospital Municipal\nSão Sebastião",
    "address": "BA 156 km 76 S/N\nCentro",
    "phones": [
      "(77) 98195-4897"
    ],
    "cnes": "4024370",
    "antivenoms": [],
    "source_date": "2026-01-05",
    "lat": -13.33093,
    "lng": -42.292762,
    "geocode_tier": 3
  },
  {
    "state": "BA",
    "state_name": "Bahia",
    "city": "Cícero Dantas",
    "hospital_name": "Hospital Municipal Luiz Eduardo Magalhães",
    "address": "Rua Edgar Santos, 106 -\nCentro",
    "phones": [
      "(75) 3278-1993"
    ],
    "cnes": "2532522",
    "antivenoms": [
      "Botrópico",
      "Crotálico",
      "Elapídico",
      "Escorpiônico",
      "Araneídico"
    ],
    "source_date": "2026-01-05",
    "lat": -10.594228,
    "lng": -38.383906,
    "geocode_tier": 3
  },
  {
    "state": "BA",
    "state_name": "Bahia",
    "city": "Côcos",
    "hospital_name": "Hospital Municipal São Sebastião",
    "address": "Praça Virgílio Bandeira, S/n – Centro",
    "phones": [
      "(77) 3489-1583",
      "(77) 3489-1166"
    ],
    "cnes": "2389584",
    "antivenoms": [
      "Botrópico",
      "Crotálico",
      "Escorpiônico",
      "Araneídico"
    ],
    "source_date": "2026-01-05",
    "lat": -14.181122,
    "lng": -44.538212,
    "geocode_tier": 3
  },
  {
    "state": "BA",
    "state_name": "Bahia",
    "city": "Conceição do Coité",
    "hospital_name": "Hospital Português Unidade Regional de Conceição do Coité",
    "address": "Rua Otávio Mangabeira,\n333 - Centro",
    "phones": [
      "(75) 3262-1408"
    ],
    "cnes": "2598183",
    "antivenoms": [],
    "source_date": "2026-01-05",
    "lat": -11.562938,
    "lng": -39.283954,
    "geocode_tier": 3
  },
  {
    "state": "BA",
    "state_name": "Bahia",
    "city": "Conde",
    "hospital_name": "Hospital Givaldo Fontes Costas",
    "address": "Rua Altamirando Requião, s/n - Centro",
    "phones": [
      "(75)3429-1152"
    ],
    "cnes": "2512149",
    "antivenoms": [
      "Botrópico",
      "Escorpiônico"
    ],
    "source_date": "2026-01-05",
    "lat": -11.812976,
    "lng": -37.61387,
    "geocode_tier": 3
  },
  {
    "state": "BA",
    "state_name": "Bahia",
    "city": "Condeúba",
    "hospital_name": "Hospital Municipal Dr. José Cardoso dos Apóstolos",
    "address": "Praça Alcides Cordeiro,\ns/n - São Francisco",
    "phones": [
      "(77) 3435-2023"
    ],
    "cnes": "2801566",
    "antivenoms": [
      "Botrópico",
      "Crotálico",
      "Escorpiônico"
    ],
    "source_date": "2026-01-05",
    "lat": -14.902227,
    "lng": -41.971829,
    "geocode_tier": 3
  },
  {
    "state": "BA",
    "state_name": "Bahia",
    "city": "Cordeiros",
    "hospital_name": "Hospital Municipal Joaquim Mutti de Carvalho",
    "address": "Rua Ruy Barbosa, s/n – Estrada Cordeiros Condeuba km 0",
    "phones": [
      "(77) 3447-2162"
    ],
    "cnes": "5446333",
    "antivenoms": [
      "Botrópico",
      "Crotálico",
      "Escorpiônico",
      "Araneídico"
    ],
    "source_date": "2026-01-05",
    "lat": -15.039722,
    "lng": -41.931423,
    "geocode_tier": 3
  },
  {
    "state": "BA",
    "state_name": "Bahia",
    "city": "Coribe",
    "hospital_name": "Hospital Municipal Antônio Joaquim Lopes",
    "address": "Rua Clériston Andrade,\ns/n - Centro",
    "phones": [
      "(77) 3480-2119"
    ],
    "cnes": "2801558",
    "antivenoms": [
      "Botrópico",
      "Crotálico",
      "Escorpiônico",
      "Araneídico"
    ],
    "source_date": "2026-01-05",
    "lat": -13.828471,
    "lng": -44.45727,
    "geocode_tier": 3
  },
  {
    "state": "BA",
    "state_name": "Bahia",
    "city": "Correntina",
    "hospital_name": "Hospital Municipal Dr. Lauro Joaquim de Araújo",
    "address": "Av. Tancredo Neves, s/n\n- Colina Azul",
    "phones": [
      "(77) 3488-3246"
    ],
    "cnes": "2101547",
    "antivenoms": [
      "Botrópico",
      "Crotálico",
      "Escorpiônico",
      "Araneídico"
    ],
    "source_date": "2026-01-05",
    "lat": -13.344157,
    "lng": -44.634507,
    "geocode_tier": 3
  },
  {
    "state": "BA",
    "state_name": "Bahia",
    "city": "Curaçá",
    "hospital_name": "Hospital Dr. Jaime da Silveira Coelho",
    "address": "Av. Euvaldo Torres de Aquino, s/n - Centro",
    "phones": [
      "(74) 3531-1118"
    ],
    "cnes": "2400901",
    "antivenoms": [
      "Botrópico",
      "Crotálico",
      "Elapídico",
      "Escorpiônico",
      "Araneídico"
    ],
    "source_date": "2026-01-05",
    "lat": -8.991049,
    "lng": -39.908905,
    "geocode_tier": 3
  },
  {
    "state": "BA",
    "state_name": "Bahia",
    "city": "Dom Basilio",
    "hospital_name": "Hospital",
    "address": "Rua Dom Helio Pascoal, s/n - Centro",
    "phones": [
      "(77)981142118"
    ],
    "cnes": "2602563",
    "antivenoms": [
      "Escorpiônico"
    ],
    "source_date": "2026-01-05",
    "lat": -13.758348,
    "lng": -41.772908,
    "geocode_tier": 2
  },
  {
    "state": "BA",
    "state_name": "Bahia",
    "city": "Encruzilhada",
    "hospital_name": "Hospital Municipal",
    "address": "Rua Clemente Batista Soares, s/n - Fortaleza",
    "phones": [
      "(77) 3439-2157"
    ],
    "cnes": "4025148",
    "antivenoms": [
      "Botrópico",
      "Crotálico",
      "Escorpiônico",
      "Araneídico"
    ],
    "source_date": "2026-01-05",
    "lat": -15.534351,
    "lng": -40.909097,
    "geocode_tier": 2
  },
  {
    "state": "BA",
    "state_name": "Bahia",
    "city": "Entre Rios",
    "hospital_name": "Hospital Municipal",
    "address": "Rua Lauro de Freitas, 86 - Centro",
    "phones": [
      "(75) 3420 3438"
    ],
    "cnes": "2620464",
    "antivenoms": [
      "Botrópico",
      "Crotálico",
      "Elapídico",
      "Escorpiônico",
      "Araneídico"
    ],
    "source_date": "2026-01-05",
    "lat": -11.941466,
    "lng": -38.078543,
    "geocode_tier": 2
  },
  {
    "state": "BA",
    "state_name": "Bahia",
    "city": "Érico Cardoso",
    "hospital_name": "Hospital Unidade",
    "address": "Av. Barra, s/n - Centro",
    "phones": [
      "(77) 99132-6085"
    ],
    "cnes": "4021185",
    "antivenoms": [],
    "source_date": "2026-01-05",
    "lat": -13.419162,
    "lng": -42.138149,
    "geocode_tier": 3
  },
  {
    "state": "BA",
    "state_name": "Bahia",
    "city": "Esplanada",
    "hospital_name": "Hospital São Francisco e São Vicente (Santa Casa de Misericórdia)",
    "address": "Av. São Francisco, 318 -\nCentro",
    "phones": [
      "(75) 3427-1523",
      "(75) 3427-1360"
    ],
    "cnes": "2627183",
    "antivenoms": [
      "Botrópico",
      "Crotálico",
      "Elapídico",
      "Escorpiônico",
      "Araneídico"
    ],
    "source_date": "2026-01-05",
    "lat": -11.800614,
    "lng": -37.9453,
    "geocode_tier": 3
  },
  {
    "state": "BA",
    "state_name": "Bahia",
    "city": "Euclides da Cunha",
    "hospital_name": "UPA Dr. Aristides\nFreitas de Queiroz",
    "address": "Av. Renato Campos, s/n -\nPau Miúdo",
    "phones": [
      "(75) 3271-3883"
    ],
    "cnes": "9130411",
    "antivenoms": [
      "Botrópico",
      "Crotálico",
      "Elapídico",
      "Escorpiônico",
      "Araneídico"
    ],
    "source_date": "2026-01-05",
    "lat": -10.506801,
    "lng": -39.016582,
    "geocode_tier": 3
  },
  {
    "state": "BA",
    "state_name": "Bahia",
    "city": "Eunápolis",
    "hospital_name": "Hospital Regional de Eunápolis",
    "address": "Av. Princesa Isabel, 750 - Pequi",
    "phones": [
      "(73) 3281-9200"
    ],
    "cnes": "2507447",
    "antivenoms": [
      "Botrópico",
      "Crotálico",
      "Escorpiônico",
      "Araneídico"
    ],
    "source_date": "2026-01-05",
    "lat": -16.372084,
    "lng": -39.573948,
    "geocode_tier": 1
  },
  {
    "state": "BA",
    "state_name": "Bahia",
    "city": "Feira da Mata",
    "hospital_name": "Hospital Municipal de Feira da Mata",
    "address": "Pça Pref Elias Pereira de Souza Filho",
    "phones": [
      "(77) 99846-2395"
    ],
    "cnes": "3013359",
    "antivenoms": [
      "Botrópico",
      "Escorpiônico",
      "Crotálico"
    ],
    "source_date": "2026-01-05",
    "lat": -14.211978,
    "lng": -44.282441,
    "geocode_tier": 3
  },
  {
    "state": "BA",
    "state_name": "Bahia",
    "city": "Feira de Santana",
    "hospital_name": "Hospital Estadual\nda Criança",
    "address": "Av. Eduardo Froés da\nMota, s/n - 35 BI",
    "phones": [
      "(75) 3602-0300",
      "(75) 3602-0301"
    ],
    "cnes": "6602533",
    "antivenoms": [],
    "source_date": "2026-01-05",
    "lat": -12.271164,
    "lng": -38.935287,
    "geocode_tier": 1
  },
  {
    "state": "BA",
    "state_name": "Bahia",
    "city": "Feira de Santana",
    "hospital_name": "Hospital Geral\nClériston Andrade",
    "address": "Av. Eduardo Fróes da\nMota, s/n - 35 BI",
    "phones": [
      "(75) 3602-3300",
      "(75) 3626-6438"
    ],
    "cnes": "2799758",
    "antivenoms": [
      "Botrópico",
      "Crotálico",
      "Elapídico",
      "Laquético",
      "Escorpiônico",
      "Araneídico"
    ],
    "source_date": "2026-01-05",
    "lat": -12.271164,
    "lng": -38.935287,
    "geocode_tier": 1
  },
  {
    "state": "BA",
    "state_name": "Bahia",
    "city": "Filadélfia",
    "hospital_name": "Hospital São\nSebastião",
    "address": "Av. ACM, s/n - Centro",
    "phones": [
      "(74) 3551-2201"
    ],
    "cnes": "2401665",
    "antivenoms": [
      "Botrópico",
      "Crotálico",
      "Elapídico",
      "Laquético",
      "Escorpiônico",
      "Araneídico"
    ],
    "source_date": "2026-01-05",
    "lat": -10.741888,
    "lng": -40.130418,
    "geocode_tier": 3
  },
  {
    "state": "BA",
    "state_name": "Bahia",
    "city": "Gandu",
    "hospital_name": "Hospital João\nBatista Assis",
    "address": "Loteamento João Assis,\ns/ nº - João Assis",
    "phones": [
      "(73) 3254-1250"
    ],
    "cnes": "2412381",
    "antivenoms": [
      "Botrópico",
      "Crotálico",
      "Elapídico",
      "Laquético",
      "Escorpiônico",
      "Araneídico"
    ],
    "source_date": "2026-01-05",
    "lat": -13.744814,
    "lng": -39.484473,
    "geocode_tier": 3
  },
  {
    "state": "BA",
    "state_name": "Bahia",
    "city": "Gentio do Ouro",
    "hospital_name": "Hospital Municipal",
    "address": "Rua Antônio Mariano Barreto, 64 - Centro",
    "phones": [
      "(74) 3637-2001"
    ],
    "cnes": "2402394",
    "antivenoms": [
      "Crotálico",
      "Escorpiônico"
    ],
    "source_date": "2026-01-05",
    "lat": -11.430214,
    "lng": -42.506318,
    "geocode_tier": 3
  },
  {
    "state": "BA",
    "state_name": "Bahia",
    "city": "Guanambi",
    "hospital_name": "Hospital Regional Guanambi",
    "address": "Rua Dr. José Humberto Nunes, 1750 – Paraíso",
    "phones": [
      "(77) 3451-6060"
    ],
    "cnes": "2804034",
    "antivenoms": [
      "Crotálico",
      "Elapídico",
      "Escorpiônico",
      "Araneídico"
    ],
    "source_date": "2026-01-05",
    "lat": -14.213968,
    "lng": -42.764954,
    "geocode_tier": 2
  },
  {
    "state": "BA",
    "state_name": "Bahia",
    "city": "Guaratinga",
    "hospital_name": "Hospital",
    "address": "Rua Iracema Moura, 289 – Centro",
    "phones": [
      "(73) 3277-2311"
    ],
    "cnes": "2412276",
    "antivenoms": [
      "Crotálico",
      "Escorpiônico",
      "Araneídico"
    ],
    "source_date": "2026-01-05",
    "lat": -16.584919,
    "lng": -39.780975,
    "geocode_tier": 1
  },
  {
    "state": "BA",
    "state_name": "Bahia",
    "city": "Iaçu",
    "hospital_name": "Hosp. Municipal",
    "address": "Rodovia BA 046 – Km 01 – Bairro Cerâmica",
    "phones": [
      "(75) 3325-3030",
      "(75) 3325-2303"
    ],
    "cnes": "2772671",
    "antivenoms": [
      "Crotálico",
      "Elapídico",
      "Escorpiônico",
      "Araneídico"
    ],
    "source_date": "2026-01-05",
    "lat": -12.767207,
    "lng": -40.210643,
    "geocode_tier": 3
  },
  {
    "state": "BA",
    "state_name": "Bahia",
    "city": "Ibiassucê",
    "hospital_name": "Hospital Municipal",
    "address": "Avenida Rui Barbosa",
    "phones": [
      "(77)34652237"
    ],
    "cnes": "2412551",
    "antivenoms": [
      "Escorpiônico"
    ],
    "source_date": "2026-01-05",
    "lat": -14.259617,
    "lng": -42.260841,
    "geocode_tier": 2
  },
  {
    "state": "BA",
    "state_name": "Bahia",
    "city": "Ibicuí",
    "hospital_name": "Hospital",
    "address": "Rua Artur Pires, 10 - Centro",
    "phones": [
      "(73) 3272-2943"
    ],
    "cnes": "2412845",
    "antivenoms": [
      "Crotálico",
      "Elapídico",
      "Laquético",
      "Escorpiônico",
      "Araneídico"
    ],
    "source_date": "2026-01-05",
    "lat": -14.84496,
    "lng": -39.987915,
    "geocode_tier": 3
  },
  {
    "state": "BA",
    "state_name": "Bahia",
    "city": "Ibipitanga",
    "hospital_name": "Unidade Mista de",
    "address": "Av. Clériston Andrade, 1129 – Centro",
    "phones": [
      "(77) 3674-2017"
    ],
    "cnes": "5020743",
    "antivenoms": [],
    "source_date": "2026-01-05",
    "lat": -12.880435,
    "lng": -42.485568,
    "geocode_tier": 3
  },
  {
    "state": "BA",
    "state_name": "Bahia",
    "city": "Ibirapitanga",
    "hospital_name": "Hospital Municipal",
    "address": "Rua Israel Barcelos, s/n - Centro",
    "phones": [],
    "cnes": "2413043",
    "antivenoms": [],
    "source_date": "2026-01-05",
    "lat": -14.161569,
    "lng": -39.369522,
    "geocode_tier": 3
  },
  {
    "state": "BA",
    "state_name": "Bahia",
    "city": "Ibitiara",
    "hospital_name": "Hospital Padre Aldo Coppola",
    "address": "Rodovia BA 152, 1000 – Centro",
    "phones": [
      "(77) 3647-2209"
    ],
    "cnes": "2412713",
    "antivenoms": [
      "Crotálico",
      "Elapídico",
      "Laquético",
      "Escorpiônico",
      "Araneídico"
    ],
    "source_date": "2026-01-05",
    "lat": -12.649377,
    "lng": -42.217248,
    "geocode_tier": 3
  },
  {
    "state": "BA",
    "state_name": "Bahia",
    "city": "Ibotirama",
    "hospital_name": "Hospital Regional de Ibotirama",
    "address": "Av. JK, s/n - São Francisco",
    "phones": [
      "(77) 3698-1212"
    ],
    "cnes": "2602121",
    "antivenoms": [
      "Crotálico",
      "Elapídico",
      "Escorpiônico",
      "Araneídico"
    ],
    "source_date": "2026-01-05",
    "lat": -12.184743,
    "lng": -43.210948,
    "geocode_tier": 1
  },
  {
    "state": "BA",
    "state_name": "Bahia",
    "city": "Igaporã",
    "hospital_name": "Hospital Municipal José Olinto Cotrim",
    "address": "R Sangente Valne Fagundes, nº 60, Centro",
    "phones": [
      "(77) 3466-2112"
    ],
    "cnes": "2627256",
    "antivenoms": [],
    "source_date": "2026-01-05",
    "lat": -13.772532,
    "lng": -42.716844,
    "geocode_tier": 3
  },
  {
    "state": "BA",
    "state_name": "Bahia",
    "city": "Igrapiuna",
    "hospital_name": "Hospital",
    "address": "Av. Geovane de Almeida Dócio, s/n - Edrizio Régis",
    "phones": [
      "(73) 3225-1140"
    ],
    "cnes": "2413299",
    "antivenoms": [],
    "source_date": "2026-01-05",
    "lat": -13.822712,
    "lng": -39.141986,
    "geocode_tier": 3
  },