{"row_id": "AM_0075", "candidate_number": 1, "pattern": "unit_muni_state", "query": "2º Pelotão Especial de Fronteira do Exército (5º BIS), São Gabriel da Cachoeira, AMAZONAS, Brasil", "status": "OK", "error": null, "score": 120, "attempted_at": "2026-04-19T15:47:23Z", "response": {"results": [{"address_components": [{"long_name": "São Gabriel da Cachoeira", "short_name": "São Gabriel da Cachoeira", "types": ["administrative_area_level_2", "political"]}, {"long_name": "São Gabriel da Cachoeira", "short_name": "São Gabriel da Cachoeira", "types": ["administrative_area_level_4", "political"]}, {"long_name": "Amazonas", "short_name": "AM", "types": ["administrative_area_level_1", "political"]}, {"long_name": "Brasil", "short_name": "BR", "types": ["country", "political"]}, {"long_name": "69750-000", "short_name": "69750-000", "types": ["postal_code"]}], "formatted_address": "São Gabriel da Cachoeira - AM, 69750-000, Brasil", "geometry": {"location": {"lat": -0.1296579, "lng": -67.07045959999999}, "location_type": "GEOMETRIC_CENTER", "viewport": {"northeast": {"lat": -0.128332269708498, "lng": -67.0690746197085}, "southwest": {"lat": -0.131030230291502, "lng": -67.07177258029151}}}, "navigation_points": [{"location": {"latitude": -0.1296703, "longitude": -67.0704404}}], "partial_match": true, "place_id": "ChIJw8aLsvINAJIRq_rQGcum71w", "plus_code": {"compound_code": "VWCH+4R São Gabriel da Cachoeira, AM", "global_code": "67FJVWCH+4R"}, "types": ["establishment", "point_of_interest"]}], "status": "OK"}}
{"row_id": "AM_0075", "candidate_number": 2, "pattern": "unit_muni_uf", "query": "2º Pelotão Especial de Fronteira do Exército (5º BIS), São Gabriel da Cachoeira - AM, Brasil", "status": "OK", "error": null, "score": 120, "attempted_at": "2026-04-19T15:47:23Z", "response": {"results": [{"address_components": [{"long_name": "São Gabriel da Cachoeira", "short_name": "São Gabriel da Cachoeira", "types": ["administrative_area_level_2", "political"]}, {"long_name": "São Gabriel da Cachoeira", "short_name": "São Gabriel da Cachoeira", "types": ["administrative_area_level_4", "political"]}, {"long_name": "Amazonas", "short_name": "AM", "types": ["administrative_area_level_1", "political"]}, {"long_name": "Brasil", "short_name": "BR", "types": ["country", "political"]}, {"long_name": "69750-000", "short_name": "69750-000", "types": ["postal_code"]}], "formatted_address": "São Gabriel da Cachoeira - AM, 69750-000, Brasil", "geometry": {"location": {"lat": -0.1296579, "lng": -67.07045959999999}, "location_type": "GEOMETRIC_CENTER", "viewport": {"northeast": {"lat": -0.128332269708498, "lng": -67.0690746197085}, "southwest": {"lat": -0.131030230291502, "lng": -67.07177258029151}}}, "navigation_points": [{"location": {"latitude": -0.1296703, "longitude": -67.0704404}}], "partial_match": true, "place_id": "ChIJw8aLsvINAJIRq_rQGcum71w", "plus_code": {"compound_code": "VWCH+4R São Gabriel da Cachoeira, AM", "global_code": "67FJVWCH+4R"}, "types": ["establishment", "point_of_interest"]}], "status": "OK"}}
{"row_id": "AM_0075", "candidate_number": 3, "pattern": "normalized_unit_muni_state", "query": "2º Pelotão Especial de Fronteira do Exército, São Gabriel da Cachoeira, AMAZONAS, Brasil", "status": "OK", "error": null, "score": 95, "attempted_at": "2026-04-19T15:47:24Z", "response": {"results": [{"address_components": [{"long_name": "São Gabriel da Cachoeira", "short_name": "São Gabriel da Cachoeira", "types": ["locality", "political"]}, {"long_name": "São Gabriel da Cachoeira", "short_name": "São Gabriel da Cachoeira", "types": ["administrative_area_level_4", "political"]}, {"long_name": "São Gabriel da Cachoeira", "short_name": "São Gabriel da Cachoeira", "types": ["administrative_area_level_2", "political"]}, {"long_name": "Amazonas", "short_name": "AM", "types": ["administrative_area_level_1", "political"]}, {"long_name": "Brasil", "short_name": "BR", "types": ["country", "political"]}, {"long_name": "69750-000", "short_name": "69750-000", "types": ["postal_code"]}], "formatted_address": "São Gabriel da Cachoeira, AM, 69750-000, Brasil", "geometry": {"bounds": {"northeast": {"lat": -0.1086067, "lng": -67.0732678}, "southwest": {"lat": -0.1371653, "lng": -67.1000774}}, "location": {"lat": -0.1307918, "lng": -67.0877374}, "location_type": "APPROXIMATE", "viewport": {"northeast": {"lat": -0.1086067, "lng": -67.0732678}, "southwest": {"lat": -0.1371653, "lng": -67.1000774}}}, "partial_match": true, "place_id": "ChIJFdHcct0NAJIRq-Ethq8ue5c", "types": ["locality", "political"]}], "status": "OK"}}
{"row_id": "AM_0075", "candidate_number": 4, "pattern": "addr_muni_state", "query": "Comunidade Querari, São Gabriel da Cachoeira, AMAZONAS, Brasil", "status": "OK", "error": null, "score": -165, "attempted_at": "2026-04-19T15:47:24Z", "response": {"results": [{"address_components": [{"long_name": "Querari", "short_name": "Querari", "types": ["locality", "political"]}, {"long_name": "Mitú", "short_name": "Mitú", "types": ["administrative_area_level_2", "political"]}, {"long_name": "Vaupés", "short_name": "Vaupés", "types": ["administrative_area_level_1", "political"]}, {"long_name": "Colômbia", "short_name": "CO", "types": ["country", "political"]}, {"long_name": "970008", "short_name": "970008", "types": ["postal_code"]}], "formatted_address": "Querari, Mitú, Vaupés, Colômbia", "geometry": {"location": {"lat": 1.04885, "lng": -69.85494}, "location_type": "APPROXIMATE", "viewport": {"northeast": {"lat": 1.050198980291502, "lng": -69.85359101970849}, "southwest": {"lat": 1.047501019708498, "lng": -69.85628898029151}}}, "partial_match": true, "place_id": "ChIJG0fSFUp7A44RcjL9E37sw7U", "types": ["locality", "political"]}, {"address_components": [{"long_name": "São Gabriel da Cachoeira", "short_name": "São Gabriel da Cachoeira", "types": ["locality", "political"]}, {"long_name": "São Gabriel da Cachoeira", "short_name": "São Gabriel da Cachoeira", "types": ["administrative_area_level_4", "political"]}, {"long_name": "São Gabriel da Cachoeira", "short_name": "São Gabriel da Cachoeira", "types": ["administrative_area_level_2", "political"]}, {"long_name": "Amazonas", "short_name": "AM", "types": ["administrative_area_level_1", "political"]}, {"long_name": "Brasil", "short_name": "BR", "types": ["country", "political"]}, {"long_name": "69750-000", "short_name": "69750-000", "types": ["postal_code"]}], "formatted_address": "São Gabriel da Cachoeira, AM, 69750-000, Brasil", "geometry": {"bounds": {"northeast": {"lat": -0.1086067, "lng": -67.0732678}, "southwest": {"lat": -0.1371653, "lng": -67.1000774}}, "location": {"lat": -0.1307918, "lng": -67.0877374}, "location_type": "APPROXIMATE", "viewport": {"northeast": {"lat": -0.1086067, "lng": -67.0732678}, "southwest": {"lat": -0.1371653, "lng": -67.1000774}}}, "partial_match": true, "place_id": "ChIJFdHcct0NAJIRq-Ethq8ue5c", "types": ["locality", "political"]}], "status": "OK"}}
{"row_id": "AM_0075", "candidate_number": 5, "pattern": "unit_addr_muni_state", "query": "2º Pelotão Especial de Fronteira do Exército (5º BIS), Comunidade Querari, São Gabriel da Cachoeira, AMAZONAS, Brasil", "status": "OK", "error": null, "score": -165, "attempted_at": "2026-04-19T15:47:25Z", "response": {"results": [{"address_components": [{"long_name": "Querari", "short_name": "Querari", "types": ["locality", "political"]}, {"long_name": "Mitú", "short_name": "Mitú", "types": ["administrative_area_level_2", "political"]}, {"long_name": "Vaupés", "short_name": "Vaupés", "types": ["administrative_area_level_1", "political"]}, {"long_name": "Colômbia", "short_name": "CO", "types": ["country", "political"]}, {"long_name": "970008", "short_name": "970008", "types": ["postal_code"]}], "formatted_address": "Querari, Mitú, Vaupés, Colômbia", "geometry": {"location": {"lat": 1.04885, "lng": -69.85494}, "location_type": "APPROXIMATE", "viewport": {"northeast": {"lat": 1.050198980291502, "lng": -69.85359101970849}, "southwest": {"lat": 1.047501019708498, "lng": -69.85628898029151}}}, "partial_match": true, "place_id": "ChIJG0fSFUp7A44RcjL9E37sw7U", "types": ["locality", "political"]}, {"address_components": [{"long_name": "São Gabriel da Cachoeira", "short_name": "São Gabriel da Cachoeira", "types": ["locality", "political"]}, {"long_name": "São Gabriel da Cachoeira", "short_name": "São Gabriel da Cachoeira", "types": ["administrative_area_level_4", "political"]}, {"long_name": "São Gabriel da Cachoeira", "short_name": "São Gabriel da Cachoeira", "types": ["administrative_area_level_2", "political"]}, {"long_name": "Amazonas", "short_name": "AM", "types": ["administrative_area_level_1", "political"]}, {"long_name": "Brasil", "short_name": "BR", "types": ["country", "political"]}, {"long_name": "69750-000", "short_name": "69750-000", "types": ["postal_code"]}], "formatted_address": "São Gabriel da Cachoeira, AM, 69750-000, Brasil", "geometry": {"bounds": {"northeast": {"lat": -0.1086067, "lng": -67.0732678}, "southwest": {"lat": -0.1371653, "lng": -67.1000774}}, "location": {"lat": -0.1307918, "lng": -67.0877374}, "location_type": "APPROXIMATE", "viewport": {"northeast": {"lat": -0.1086067, "lng": -67.0732678}, "southwest": {"lat": -0.1371653, "lng": -67.1000774}}}, "partial_match": true, "place_id": "ChIJFdHcct0NAJIRq-Ethq8ue5c", "types": ["locality", "political"]}], "status": "OK"}}
{"row_id": "BA_0139", "candidate_number": 1, "pattern": "unit_muni_state", "query": "Hospital Municipal Paulo Souto, Jucuruçu, BAHIA, Brasil", "status": "OK", "error": null, "score": 95, "attempted_at": "2026-04-19T15:47:25Z", "response": {"results": [{"address_components": [{"long_name": "Jucuruçu", "short_name": "Jucuruçu", "types": ["locality", "political"]}, {"long_name": "Jucuruçu", "short_name": "Jucuruçu", "types": ["administrative_area_level_2", "political"]}, {"long_name": "Bahia", "short_name": "BA", "types": ["administrative_area_level_1", "political"]}, {"long_name": "Brasil", "short_name": "BR", "types": ["country", "political"]}, {"long_name": "45834-000", "short_name": "45834-000", "types": ["postal_code"]}], "formatted_address": "Jucuruçu, BA, 45834-000, Brasil", "geometry": {"location": {"lat": -16.8436634, "lng": -40.1595188}, "location_type": "APPROXIMATE", "viewport": {"northeast": {"lat": -16.8423144197085, "lng": -40.1581698197085}, "southwest": {"lat": -16.84501238029151, "lng": -40.1608677802915}}}, "partial_match": true, "place_id": "ChIJAyTz4z9uSgcRStc-9sIA-6c", "types": ["locality", "political"]}], "status": "OK"}}
{"row_id": "BA_0139", "candidate_number": 2, "pattern": "unit_muni_uf", "query": "Hospital Municipal Paulo Souto, Jucuruçu - BA, Brasil", "status": "OK", "error": null, "score": 95, "attempted_at": "2026-04-19T15:47:26Z", "response": {"results": [{"address_components": [{"long_name": "Jucuruçu", "short_name": "Jucuruçu", "types": ["locality", "political"]}, {"long_name": "Jucuruçu", "short_name": "Jucuruçu", "types": ["administrative_area_level_2", "political"]}, {"long_name": "Bahia", "short_name": "BA", "types": ["administrative_area_level_1", "political"]}, {"long_name": "Brasil", "short_name": "BR", "types": ["country", "political"]}, {"long_name": "45834-000", "short_name": "45834-000", "types": ["postal_code"]}], "formatted_address": "Jucuruçu, BA, 45834-000, Brasil", "geometry": {"location": {"lat": -16.8436634, "lng": -40.1595188}, "location_type": "APPROXIMATE", "viewport": {"northeast": {"lat": -16.8423144197085, "lng": -40.1581698197085}, "southwest": {"lat": -16.84501238029151, "lng": -40.1608677802915}}}, "partial_match": true, "place_id": "ChIJAyTz4z9uSgcRStc-9sIA-6c", "types": ["locality", "political"]}], "status": "OK"}}
{"row_id": "BA_0139", "candidate_number": 3, "pattern": "addr_muni_state", "query": "Av. Manoel Rodrigues s/nº - Califórnia, Jucuruçu, BAHIA, Brasil", "status": "OK", "error": null, "score": 150, "attempted_at": "2026-04-19T15:47:26Z", "response": {"results": [{"address_components": [{"long_name": "Avenida Manoel Rodrigues da Silva", "short_name": "Av. Manoel Rodrigues da Silva", "types": ["route"]}, {"long_name": "Jucuruçu", "short_name": "Jucuruçu", "types": ["administrative_area_level_2", "political"]}, {"long_name": "Bahia", "short_name": "BA", "types": ["administrative_area_level_1", "political"]}, {"long_name": "Brasil", "short_name": "BR", "types": ["country", "political"]}, {"long_name": "45834-000", "short_name": "45834-000", "types": ["postal_code"]}], "formatted_address": "Av. Manoel Rodrigues da Silva, Jucuruçu - BA, 45834-000, Brasil", "geometry": {"bounds": {"northeast": {"lat": -16.8365518, "lng": -40.1477929}, "southwest": {"lat": -16.8427453, "lng": -40.1567904}}, "location": {"lat": -16.8385449, "lng": -40.153962}, "location_type": "GEOMETRIC_CENTER", "viewport": {"northeast": {"lat": -16.8365518, "lng": -40.1477929}, "southwest": {"lat": -16.8427453, "lng": -40.1567904}}}, "partial_match": true, "place_id": "ChIJy6K4PTBuSgcR9Jesj61-smo", "types": ["route"]}, {"address_components": [{"long_name": "Califórnia", "short_name": "CA", "types": ["administrative_area_level_1", "political"]}, {"long_name": "Estados Unidos", "short_name": "US", "types": ["country", "political"]}], "formatted_address": "Califórnia, EUA", "geometry": {"bounds": {"northeast": {"lat": 42.009503, "lng": -114.131211}, "southwest": {"lat": 32.52950810000001, "lng": -124.482003}}, "location": {"lat": 36.778261, "lng": -119.4179324}, "location_type": "APPROXIMATE", "viewport": {"northeast": {"lat": 42.009503, "lng": -114.131211}, "southwest": {"lat": 32.52950810000001, "lng": -124.482003}}}, "partial_match": true, "place_id": "ChIJPV4oX_65j4ARVW8IJ6IJUYs", "types": ["administrative_area_level_1", "political"]}], "status": "OK"}}
{"row_id": "BA_0139", "candidate_number": 4, "pattern": "unit_addr_muni_state", "query": "Hospital Municipal Paulo Souto, Av. Manoel Rodrigues s/nº - Califórnia, Jucuruçu, BAHIA, Brasil", "status": "OK", "error": null, "score": -445, "attempted_at": "2026-04-19T15:47:27Z", "response": {"results": [{"address_components": [{"long_name": "Califórnia", "short_name": "CA", "types": ["administrative_area_level_1", "political"]}, {"long_name": "Estados Unidos", "short_name": "US", "types": ["country", "political"]}], "formatted_address": "Califórnia, EUA", "geometry": {"bounds": {"northeast": {"lat": 42.009503, "lng": -114.131211}, "southwest": {"lat": 32.52950810000001, "lng": -124.482003}}, "location": {"lat": 36.778261, "lng": -119.4179324}, "location_type": "APPROXIMATE", "viewport": {"northeast": {"lat": 42.009503, "lng": -114.131211}, "southwest": {"lat": 32.52950810000001, "lng": -124.482003}}}, "partial_match": true, "place_id": "ChIJPV4oX_65j4ARVW8IJ6IJUYs", "types": ["administrative_area_level_1", "political"]}, {"address_components": [{"long_name": "26", "short_name": "26", "types": ["street_number"]}, {"long_name": "Avenida Manoel Rodrigues da Silva", "short_name": "Av. Manoel Rodrigues da Silva", "types": ["route"]}, {"long_name": "Jucuruçu", "short_name": "Jucuruçu", "types": ["administrative_area_level_2", "political"]}, {"long_name": "Bahia", "short_name": "BA", "types": ["administrative_area_level_1", "political"]}, {"long_name": "Brasil", "short_name": "BR", "types": ["country", "political"]}, {"long_name": "45834-000", "short_name": "45834-000", "types": ["postal_code"]}], "formatted_address": "Av. Manoel Rodrigues da Silva, 26, Jucuruçu - BA, 45834-000, Brasil", "geometry": {"location": {"lat": -16.8400569, "lng": -40.155521}, "location_type": "ROOFTOP", "viewport": {"northeast": {"lat": -16.8388076697085, "lng": -40.1542021197085}, "southwest": {"lat": -16.8415056302915, "lng": -40.15690008029149}}}, "navigation_points": [{"location": {"latitude": -16.8402013, "longitude": -40.1555493}}], "partial_match": true, "place_id": "ChIJ659ya2dvSgcRItlGecz45lo", "plus_code": {"compound_code": "5R5V+XQ Jucuruçu - BA", "global_code": "58MX5R5V+XQ"}, "types": ["establishment", "health", "hospital", "point_of_interest"]}], "status": "OK"}}
{"row_id": "BA_0199", "candidate_number": 1, "pattern": "unit_muni_state", "query": "Hospital e Maternidade Maria Amelia Menezes Santos, Rio Real, BAHIA, Brasil", "status": "OK", "error": null, "score": 95, "attempted_at": "2026-04-19T15:47:27Z", "response": {"results": [{"address_components": [{"long_name": "Rio Real", "short_name": "Rio Real", "types": ["locality", "political"]}, {"long_name": "Rio Real", "short_name": "Rio Real", "types": ["administrative_area_level_2", "political"]}, {"long_name": "Bahia", "short_name": "BA", "types": ["administrative_area_level_1", "political"]}, {"long_name": "Brasil", "short_name": "BR", "types": ["country", "political"]}, {"long_name": "48330-000", "short_name": "48330-000", "types": ["postal_code"]}], "formatted_address": "Rio Real, BA, 48330-000, Brasil", "geometry": {"bounds": {"northeast": {"lat": -11.4602485, "lng": -37.9135488}, "southwest": {"lat": -11.5052241, "lng": -37.9466736}}, "location": {"lat": -11.4840397, "lng": -37.93218960000001}, "location_type": "APPROXIMATE", "viewport": {"northeast": {"lat": -11.4602485, "lng": -37.9135488}, "southwest": {"lat": -11.5052241, "lng": -37.9466736}}}, "partial_match": true, "place_id": "ChIJKW2KSuL8EAcRBv30RxEHtq0", "types": ["locality", "political"]}, {"address_components": [{"long_name": "Rio Real", "short_name": "Rio Real", "types": ["administrative_area_level_2", "political"]}, {"long_name": "Bahia", "short_name": "BA", "types": ["administrative_area_level_1", "political"]}, {"long_name": "Brasil", "short_name": "BR", "types": ["country", "political"]}], "formatted_address": "Rio Real - BA, Brasil", "geometry": {"bounds": {"northeast": {"lat": -11.3409468, "lng": -37.7272247}, "southwest": {"lat": -11.7372079, "lng": -38.0820746}}, "location": {"lat": -11.4840402, "lng": -37.93216770000001}, "location_type": "APPROXIMATE", "viewport": {"northeast": {"lat": -11.3409468, "lng": -37.7272247}, "southwest": {"lat": -11.7372079, "lng": -38.0820746}}}, "partial_match": true, "place_id": "ChIJ5xOzTOD8EAcRuuRtEi-etJY", "types": ["administrative_area_level_2", "political"]}], "status": "OK"}}
{"row_id": "BA_0199", "candidate_number": 2, "pattern": "unit_muni_uf", "query": "Hospital e Maternidade Maria Amelia Menezes Santos, Rio Real - BA, Brasil", "status": "OK", "error": null, "score": 95, "attempted_at": "2026-04-19T15:47:27Z", "response": {"results": [{"address_components": [{"long_name": "Rio Real", "short_name": "Rio Real", "types": ["locality", "political"]}, {"long_name": "Rio Real", "short_name": "Rio Real", "types": ["administrative_area_level_2", "political"]}, {"long_name": "Bahia", "short_name": "BA", "types": ["administrative_area_level_1", "political"]}, {"long_name": "Brasil", "short_name": "BR", "types": ["country", "political"]}, {"long_name": "48330-000", "short_name": "48330-000", "types": ["postal_code"]}], "formatted_address": "Rio Real, BA, 48330-000, Brasil", "geometry": {"bounds": {"northeast": {"lat": -11.4602485, "lng": -37.9135488}, "southwest": {"lat": -11.5052241, "lng": -37.9466736}}, "location": {"lat": -11.4840397, "lng": -37.93218960000001}, "location_type": "APPROXIMATE", "viewport": {"northeast": {"lat": -11.4602485, "lng": -37.9135488}, "southwest": {"lat": -11.5052241, "lng": -37.9466736}}}, "partial_match": true, "place_id": "ChIJKW2KSuL8EAcRBv30RxEHtq0", "types": ["locality", "political"]}], "status": "OK"}}
{"row_id": "BA_0199", "candidate_number": 3, "pattern": "addr_muni_state", "query": "Rua Monsenhor Florisvaldo, 709 - Centro, Rio Real, BAHIA, Brasil", "status": "OK", "error": null, "score": 155, "attempted_at": "2026-04-19T15:47:28Z", "response": {"results": [{"address_components": [{"long_name": "709", "short_name": "709", "types": ["street_number"]}, {"long_name": "Rua Afonso Florisvaldo", "short_name": "R. Afonso Florisvaldo", "types": ["route"]}, {"long_name": "Rio Real", "short_name": "Rio Real", "types": ["administrative_area_level_2", "political"]}, {"long_name": "Bahia", "short_name": "BA", "types": ["administrative_area_level_1", "political"]}, {"long_name": "Brasil", "short_name": "BR", "types": ["country", "political"]}, {"long_name": "48330-000", "short_name": "48330-000", "types": ["postal_code"]}], "formatted_address": "R. Afonso Florisvaldo, 709, Rio Real - BA, 48330-000, Brasil", "geometry": {"location": {"lat": -11.4784775, "lng": -37.93355450000001}, "location_type": "RANGE_INTERPOLATED", "viewport": {"northeast": {"lat": -11.4771344697085, "lng": -37.93213596970851}, "southwest": {"lat": -11.4798324302915, "lng": -37.93483393029151}}}, "navigation_points": [{"location": {"latitude": -11.4784886, "longitude": -37.9334245}}], "partial_match": true, "place_id": "EjxSLiBBZm9uc28gRmxvcmlzdmFsZG8sIDcwOSwgUmlvIFJlYWwgLSBCQSwgNDgzMzAtMDAwLCBCcmF6aWwiMRIvChQKEgktQSko4_wQBxHLUVnpInT94hDFBSoUChIJsWzCFfv8EAcR0c1FVtAiCUs", "types": ["street_address"]}], "status": "OK"}}
{"row_id": "BA_0199", "candidate_number": 4, "pattern": "unit_addr_muni_state", "query": "Hospital e Maternidade Maria Amelia Menezes Santos, Rua Monsenhor Florisvaldo, 709 - Centro, Rio Real, BAHIA, Brasil", "status": "OK", "error": null, "score": -75, "attempted_at": "2026-04-19T15:47:28Z", "response": {"results": [{"address_components": [{"long_name": "Centro", "short_name": "Centro", "types": ["political", "sublocality", "sublocality_level_1"]}, {"long_name": "Rio de Janeiro", "short_name": "Rio de Janeiro", "types": ["administrative_area_level_2", "political"]}, {"long_name": "Rio de Janeiro", "short_name": "RJ", "types": ["administrative_area_level_1", "political"]}, {"long_name": "Brasil", "short_name": "BR", "types": ["country", "political"]}], "formatted_address": "Centro, Rio de Janeiro - RJ, Brasil", "geometry": {"bounds": {"northeast": {"lat": -22.8826767, "lng": -43.1578124}, "southwest": {"lat": -22.9183895, "lng": -43.1983225}}, "location": {"lat": -22.9012249, "lng": -43.1791747}, "location_type": "APPROXIMATE", "viewport": {"northeast": {"lat": -22.8826767, "lng": -43.1578124}, "southwest": {"lat": -22.9183895, "lng": -43.1983225}}}, "partial_match": true, "place_id": "ChIJF3IcFV5_mQARfbkw_ML5_X8", "types": ["political", "sublocality", "sublocality_level_1"]}, {"address_components": [{"long_name": "Rio Real", "short_name": "Rio Real", "types": ["locality", "political"]}, {"long_name": "Rio Real", "short_name": "Rio Real", "types": ["administrative_area_level_2", "political"]}, {"long_name": "Bahia", "short_name": "BA", "types": ["administrative_area_level_1", "political"]}, {"long_name": "Brasil", "short_name": "BR", "types": ["country", "political"]}, {"long_name": "48330-000", "short_name": "48330-000", "types": ["postal_code"]}], "formatted_address": "Rio Real, BA, 48330-000, Brasil", "geometry": {"bounds": {"northeast": {"lat": -11.4602485, "lng": -37.9135488}, "southwest": {"lat": -11.5052241, "lng": -37.9466736}}, "location": {"lat": -11.4840397, "lng": -37.93218960000001}, "location_type": "APPROXIMATE", "viewport": {"northeast": {"lat": -11.4602485, "lng": -37.9135488}, "southwest": {"lat": -11.5052241, "lng": -37.9466736}}}, "partial_match": true, "place_id": "ChIJKW2KSuL8EAcRBv30RxEHtq0", "types": ["locality", "political"]}], "status": "OK"}}
{"row_id": "BA_0219", "candidate_number": 1, "pattern": "unit_muni_state", "query": "Hospital Municipal de Sebastião Laranjeiras (Hosp. Munic. Walter Leão Rocha), Sebastião Laranjeiras, BAHIA, Brasil", "status": "OK", "error": null, "score": 110, "attempted_at": "2026-04-19T15:47:28Z", "response": {"results": [{"address_components": [{"long_name": "Avenida Tiradentes", "short_name": "Av. Tiradentes", "types": ["route"]}, {"long_name": "Sebastião Laranjeiras", "short_name": "Sebastião Laranjeiras", "types": ["administrative_area_level_4", "political"]}, {"long_name": "Sebastião Laranjeiras", "short_name": "Sebastião Laranjeiras", "types": ["administrative_area_level_2", "political"]}, {"long_name": "Bahia", "short_name": "BA", "types": ["administrative_area_level_1", "political"]}, {"long_name": "Brasil", "short_name": "BR", "types": ["country", "political"]}, {"long_name": "46450-000", "short_name": "46450-000", "types": ["postal_code"]}], "formatted_address": "Av. Tiradentes - Sebastião Laranjeiras, BA, 46450-000, Brasil", "geometry": {"location": {"lat": -14.5710273, "lng": -42.94450519999999}, "location_type": "GEOMETRIC_CENTER", "viewport": {"northeast": {"lat": -14.5697693197085, "lng": -42.9431462697085}, "southwest": {"lat": -14.5724672802915, "lng": -42.94584423029149}}}, "navigation_points": [{"location": {"latitude": -14.5711467, "longitude": -42.9444922}}], "partial_match": true, "place_id": "ChIJv5QKeuGdWgcR33ZQY6MjZTc", "plus_code": {"compound_code": "C3H4+H5 Sebastião Laranjeiras, BA", "global_code": "58QVC3H4+H5"}, "types": ["establishment", "health", "hospital", "point_of_interest"]}], "status": "OK"}}
{"row_id": "BA_0219", "candidate_number": 2, "pattern": "unit_muni_uf", "query": "Hospital Municipal de Sebastião Laranjeiras (Hosp. Munic. Walter Leão Rocha), Sebastião Laranjeiras - BA, Brasil", "status": "OK", "error": null, "score": 110, "attempted_at": "2026-04-19T15:47:29Z", "response": {"results": [{"address_components": [{"long_name": "Avenida Tiradentes", "short_name": "Av. Tiradentes", "types": ["route"]}, {"long_name": "Sebastião Laranjeiras", "short_name": "Sebastião Laranjeiras", "types": ["administrative_area_level_4", "political"]}, {"long_name": "Sebastião Laranjeiras", "short_name": "Sebastião Laranjeiras", "types": ["administrative_area_level_2", "political"]}, {"long_name": "Bahia", "short_name": "BA", "types": ["administrative_area_level_1", "political"]}, {"long_name": "Brasil", "short_name": "BR", "types": ["country", "political"]}, {"long_name": "46450-000", "short_name": "46450-000", "types": ["postal_code"]}], "formatted_address": "Av. Tiradentes - Sebastião Laranjeiras, BA, 46450-000, Brasil", "geometry": {"location": {"lat": -14.5710273, "lng": -42.94450519999999}, "location_type": "GEOMETRIC_CENTER", "viewport": {"northeast": {"lat": -14.5697693197085, "lng": -42.9431462697085}, "southwest": {"lat": -14.5724672802915, "lng": -42.94584423029149}}}, "navigation_points": [{"location": {"latitude": -14.5711467, "longitude": -42.9444922}}], "partial_match": true, "place_id": "ChIJv5QKeuGdWgcR33ZQY6MjZTc", "plus_code": {"compound_code": "C3H4+H5 Sebastião Laranjeiras, BA", "global_code": "58QVC3H4+H5"}, "types": ["establishment", "health", "hospital", "point_of_interest"]}], "status": "OK"}}
{"row_id": "BA_0219", "candidate_number": 3, "pattern": "normalized_unit_muni_state", "query": "Hospital Municipal de Sebastião Laranjeiras, Sebastião Laranjeiras, BAHIA, Brasil", "status": "OK", "error": null, "score": 95, "attempted_at": "2026-04-19T15:47:29Z", "response": {"results": [{"address_components": [{"long_name": "Sebastião Laranjeiras", "short_name": "Sebastião Laranjeiras", "types": ["locality", "political"]}, {"long_name": "Sebastião Laranjeiras", "short_name": "Sebastião Laranjeiras", "types": ["administrative_area_level_4", "political"]}, {"long_name": "Sebastião Laranjeiras", "short_name": "Sebastião Laranjeiras", "types": ["administrative_area_level_2", "political"]}, {"long_name": "Bahia", "short_name": "BA", "types": ["administrative_area_level_1", "political"]}, {"long_name": "Brasil", "short_name": "BR", "types": ["country", "political"]}, {"long_name": "46450-000", "short_name": "46450-000", "types": ["postal_code"]}], "formatted_address": "Sebastião Laranjeiras, BA, 46450-000, Brasil", "geometry": {"location": {"lat": -14.5717942, "lng": -42.94027550000001}, "location_type": "APPROXIMATE", "viewport": {"northeast": {"lat": -14.5704452197085, "lng": -42.93892651970851}, "southwest": {"lat": -14.5731431802915, "lng": -42.94162448029151}}}, "partial_match": true, "place_id": "ChIJLZDEIPudWgcRIGwFkG0hxB0", "types": ["locality", "political"]}], "status": "OK"}}
{"row_id": "BA_0219", "candidate_number": 4, "pattern": "addr_muni_state", "query": "Rua Tiradentes, 426 - Centro, Sebastião Laranjeiras, BAHIA, Brasil", "status": "OK", "error": null, "score": 55, "attempted_at": "2026-04-19T15:47:30Z", "response": {"results": [{"address_components": [{"long_name": "426", "short_name": "426", "types": ["street_number"]}, {"long_name": "Rua Tiradentes", "short_name": "R. Tiradentes", "types": ["route"]}, {"long_name": "Catu", "short_name": "Catu", "types": ["administrative_area_level_4", "political"]}, {"long_name": "Catu", "short_name": "Catu", "types": ["administrative_area_level_2", "political"]}, {"long_name": "Bahia", "short_name": "BA", "types": ["administrative_area_level_1", "political"]}, {"long_name": "Brasil", "short_name": "BR", "types": ["country", "political"]}, {"long_name": "48110-000", "short_name": "48110-000", "types": ["postal_code"]}], "formatted_address": "R. Tiradentes, 426 - Catu, BA, 48110-000, Brasil", "geometry": {"location": {"lat": -12.3523202, "lng": -38.3815213}, "location_type": "RANGE_INTERPOLATED", "viewport": {"northeast": {"lat": -12.3509712197085, "lng": -38.38017231970849}, "southwest": {"lat": -12.3536691802915, "lng": -38.38287028029149}}}, "partial_match": true, "place_id": "EjBSLiBUaXJhZGVudGVzLCA0MjYgLSBDYXR1LCBCQSwgNDgxMTAtMDAwLCBCcmF6aWwiMRIvChQKEgkXlTUa7Y0WBxGGabFCPAOtXBCqAyoUChIJ5StsjOpBzpQROPHzl7y5s10", "types": ["street_address"]}, {"address_components": [{"long_name": "Sebastião Laranjeiras", "short_name": "Sebastião Laranjeiras", "types": ["administrative_area_level_2", "political"]}, {"long_name": "Bahia", "short_name": "BA", "types": ["administrative_area_level_1", "political"]}, {"long_name": "Brasil", "short_name": "BR", "types": ["country", "political"]}], "formatted_address": "Sebastião Laranjeiras - BA, Brasil", "geometry": {"bounds": {"northeast": {"lat": -14.332472, "lng": -42.7933858}, "southwest": {"lat": -14.8159448, "lng": -43.530797}}, "location": {"lat": -14.5717967, "lng": -42.9402575}, "location_type": "APPROXIMATE", "viewport": {"northeast": {"lat": -14.332472, "lng": -42.7933858}, "southwest": {"lat": -14.8159448, "lng": -43.530797}}}, "partial_match": true, "place_id": "ChIJYcUdm81_UAcRmurH8A6Qhqs", "types": ["administrative_area_level_2", "political"]}, {"address_components": [{"long_name": "Centro", "short_name": "Centro", "types": ["political", "sublocality", "sublocality_level_1"]}, {"long_name": "Campinas", "short_name": "Campinas", "types": ["administrative_area_level_2", "political"]}, {"long_name": "São Paulo", "short_name": "SP", "types": ["administrative_area_level_1", "political"]}, {"long_name": "Brasil", "short_name": "BR", "types": ["country", "political"]}], "formatted_address": "Centro, Campinas - SP, Brasil", "geometry": {"bounds": {"northeast": {"lat": -22.9074547, "lng": -47.0565109}, "southwest": {"lat": -22.9131484, "lng": -47.0624905}}, "location": {"lat": -22.9101744, "lng": -47.0593274}, "location_type": "APPROXIMATE", "viewport": {"northeast": {"lat": -22.9074547, "lng": -47.0565109}, "southwest": {"lat": -22.9131484, "lng": -47.0624905}}}, "partial_match": true, "place_id": "ChIJhVqSQbfIyJQRWGnHTixUZX8", "types": ["political", "sublocality", "sublocality_level_1"]}], "status": "OK"}}
{"row_id": "BA_0219", "candidate_number": 5, "pattern": "unit_addr_muni_state", "query": "Hospital Municipal de Sebastião Laranjeiras (Hosp. Munic. Walter Leão Rocha), Rua Tiradentes, 426 - Centro, Sebastião Laranjeiras, BAHIA, Brasil", "status": "OK", "error": null, "score": -75, "attempted_at": "2026-04-19T15:47:30Z", "response": {"results": [{"address_components": [{"long_name": "Centro", "short_name": "Centro", "types": ["political", "sublocality", "sublocality_level_1"]}, {"long_name": "Campinas", "short_name": "Campinas", "types": ["administrative_area_level_2", "political"]}, {"long_name": "São Paulo", "short_name": "SP", "types": ["administrative_area_level_1", "political"]}, {"long_name": "Brasil", "short_name": "BR", "types": ["country", "political"]}], "formatted_address": "Centro, Campinas - SP, Brasil", "geometry": {"bounds": {"northeast": {"lat": -22.9074547, "lng": -47.0565109}, "southwest": {"lat": -22.9131484, "lng": -47.0624905}}, "location": {"lat": -22.9101744, "lng": -47.0593274}, "location_type": "APPROXIMATE", "viewport": {"northeast": {"lat": -22.9074547, "lng": -47.0565109}, "southwest": {"lat": -22.9131484, "lng": -47.0624905}}}, "partial_match": true, "place_id": "ChIJhVqSQbfIyJQRWGnHTixUZX8", "types": ["political", "sublocality", "sublocality_level_1"]}, {"address_components": [{"long_name": "Avenida Tiradentes", "short_name": "Av. Tiradentes", "types": ["route"]}, {"long_name": "Sebastião Laranjeiras", "short_name": "Sebastião Laranjeiras", "types": ["administrative_area_level_4", "political"]}, {"long_name": "Sebastião Laranjeiras", "short_name": "Sebastião Laranjeiras", "types": ["administrative_area_level_2", "political"]}, {"long_name": "Bahia", "short_name": "BA", "types": ["administrative_area_level_1", "political"]}, {"long_name": "Brasil", "short_name": "BR", "types": ["country", "political"]}, {"long_name": "46450-000", "short_name": "46450-000", "types": ["postal_code"]}], "formatted_address": "Av. Tiradentes - Sebastião Laranjeiras, BA, 46450-000, Brasil", "geometry": {"location": {"lat": -14.5710273, "lng": -42.94450519999999}, "location_type": "GEOMETRIC_CENTER", "viewport": {"northeast": {"lat": -14.5697693197085, "lng": -42.9431462697085}, "southwest": {"lat": -14.5724672802915, "lng": -42.94584423029149}}}, "navigation_points": [{"location": {"latitude": -14.5711467, "longitude": -42.9444922}}], "partial_match": true, "place_id": "ChIJv5QKeuGdWgcR33ZQY6MjZTc", "plus_code": {"compound_code": "C3H4+H5 Sebastião Laranjeiras, BA", "global_code": "58QVC3H4+H5"}, "types": ["establishment", "health", "hospital", "point_of_interest"]}], "status": "OK"}}
{"row_id": "MA_0135", "candidate_number": 1, "pattern": "unit_muni_state", "query": "Hospital Municipal Rita Frca dos Santos Mãe Rita, SÃO DOMINGOS DO AZEITÃO, MARANHÃO, Brasil", "status": "OK", "error": null, "score": 150, "attempted_at": "2026-04-19T15:47:30Z", "response": {"results": [{"address_components": [{"long_name": "Rua Matagal", "short_name": "R. Matagal", "types": ["route"]}, {"long_name": "São Domingos do Azeitão", "short_name": "São Domingos do Azeitão", "types": ["administrative_area_level_2", "political"]}, {"long_name": "Maranhão", "short_name": "MA", "types": ["administrative_area_level_1", "political"]}, {"long_name": "Brasil", "short_name": "BR", "types": ["country", "political"]}, {"long_name": "65888-000", "short_name": "65888-000", "types": ["postal_code"]}], "formatted_address": "R. Matagal, São Domingos do Azeitão - MA, 65888-000, Brasil", "geometry": {"location": {"lat": -6.8116501, "lng": -44.64654549999999}, "location_type": "GEOMETRIC_CENTER", "viewport": {"northeast": {"lat": -6.810306969708498, "lng": -44.6452163197085}, "southwest": {"lat": -6.813004930291503, "lng": -44.6479142802915}}}, "navigation_points": [{"location": {"latitude": -6.811647, "longitude": -44.6465349}}], "partial_match": true, "place_id": "ChIJFa9cOADBgAcRujROmqMdRWo", "plus_code": {"compound_code": "59Q3+89 São Domingos do Azeitão - MA", "global_code": "685Q59Q3+89"}, "types": ["establishment", "health", "hospital", "point_of_interest"]}], "status": "OK"}}
{"row_id": "MA_0135", "candidate_number": 2, "pattern": "unit_muni_uf", "query": "Hospital Municipal Rita Frca dos Santos Mãe Rita, SÃO DOMINGOS DO AZEITÃO - MA, Brasil", "status": "OK", "error": null, "score": 150, "attempted_at": "2026-04-19T15:47:31Z", "response": {"results": [{"address_components": [{"long_name": "Rua Matagal", "short_name": "R. Matagal", "types": ["route"]}, {"long_name": "São Domingos do Azeitão", "short_name": "São Domingos do Azeitão", "types": ["administrative_area_level_2", "political"]}, {"long_name": "Maranhão", "short_name": "MA", "types": ["administrative_area_level_1", "political"]}, {"long_name": "Brasil", "short_name": "BR", "types": ["country", "political"]}, {"long_name": "65888-000", "short_name": "65888-000", "types": ["postal_code"]}], "formatted_address": "R. Matagal, São Domingos do Azeitão - MA, 65888-000, Brasil", "geometry": {"location": {"lat": -6.8116501, "lng": -44.64654549999999}, "location_type": "GEOMETRIC_CENTER", "viewport": {"northeast": {"lat": -6.810306969708498, "lng": -44.6452163197085}, "southwest": {"lat": -6.813004930291503, "lng": -44.6479142802915}}}, "navigation_points": [{"location": {"latitude": -6.811647, "longitude": -44.6465349}}], "partial_match": true, "place_id": "ChIJFa9cOADBgAcRujROmqMdRWo", "plus_code": {"compound_code": "59Q3+89 São Domingos do Azeitão - MA", "global_code": "685Q59Q3+89"}, "types": ["establishment", "health", "hospital", "point_of_interest"]}], "status": "OK"}}
{"row_id": "MA_0135", "candidate_number": 3, "pattern": "addr_muni_state", "query": "Rua da Assembleia, Nº 10, Centro, SÃO DOMINGOS DO AZEITÃO, MARANHÃO, Brasil", "status": "OK", "error": null, "score": -75, "attempted_at": "2026-04-19T15:47:31Z", "response": {"results": [{"address_components": [{"long_name": "Centro", "short_name": "Centro", "types": ["political", "sublocality", "sublocality_level_1"]}, {"long_name": "Rio de Janeiro", "short_name": "Rio de Janeiro", "types": ["administrative_area_level_2", "political"]}, {"long_name": "Rio de Janeiro", "short_name": "RJ", "types": ["administrative_area_level_1", "political"]}, {"long_name": "Brasil", "short_name": "BR", "types": ["country", "political"]}], "formatted_address": "Centro, Rio de Janeiro - RJ, Brasil", "geometry": {"bounds": {"northeast": {"lat": -22.8826767, "lng": -43.1578124}, "southwest": {"lat": -22.9183895, "lng": -43.1983225}}, "location": {"lat": -22.9012249, "lng": -43.1791747}, "location_type": "APPROXIMATE", "viewport": {"northeast": {"lat": -22.8826767, "lng": -43.1578124}, "southwest": {"lat": -22.9183895, "lng": -43.1983225}}}, "partial_match": true, "place_id": "ChIJF3IcFV5_mQARfbkw_ML5_X8", "types": ["political", "sublocality", "sublocality_level_1"]}, {"address_components": [{"long_name": "São Domingos do Azeitão", "short_name": "São Domingos do Azeitão", "types": ["locality", "political"]}, {"long_name": "São Domingos do Azeitão", "short_name": "São Domingos do Azeitão", "types": ["administrative_area_level_2", "political"]}, {"long_name": "Maranhão", "short_name": "MA", "types": ["administrative_area_level_1", "political"]}, {"long_name": "Brasil", "short_name": "BR", "types": ["country", "political"]}, {"long_name": "65888-000", "short_name": "65888-000", "types": ["postal_code"]}], "formatted_address": "São Domingos do Azeitão, MA, 65888-000, Brasil", "geometry": {"location": {"lat": -6.8132362, "lng": -44.6450361}, "location_type": "APPROXIMATE", "viewport": {"northeast": {"lat": -6.811887219708497, "lng": -44.6436871197085}, "southwest": {"lat": -6.814585180291502, "lng": -44.64638508029149}}}, "partial_match": true, "place_id": "ChIJTZ56AtvBgAcReHs6Mg7fEtc", "types": ["locality", "political"]}], "status": "OK"}}
{"row_id": "MA_0135", "candidate_number": 4, "pattern": "unit_addr_muni_state", "query": "Hospital Municipal Rita Frca dos Santos Mãe Rita, Rua da Assembleia, Nº 10, Centro, SÃO DOMINGOS DO AZEITÃO, MARANHÃO, Brasil", "status": "OK", "error": null, "score": -75, "attempted_at": "2026-04-19T15:47:31Z", "response": {"results": [{"address_components": [{"long_name": "Centro", "short_name": "Centro", "types": ["political", "sublocality", "sublocality_level_1"]}, {"long_name": "Rio de Janeiro", "short_name": "Rio de Janeiro", "types": ["administrative_area_level_2", "political"]}, {"long_name": "Rio de Janeiro", "short_name": "RJ", "types": ["administrative_area_level_1", "political"]}, {"long_name": "Brasil", "short_name": "BR", "types": ["country", "political"]}], "formatted_address": "Centro, Rio de Janeiro - RJ, Brasil", "geometry": {"bounds": {"northeast": {"lat": -22.8826767, "lng": -43.1578124}, "southwest": {"lat": -22.9183895, "lng": -43.1983225}}, "location": {"lat": -22.9012249, "lng": -43.1791747}, "location_type": "APPROXIMATE", "viewport": {"northeast": {"lat": -22.8826767, "lng": -43.1578124}, "southwest": {"lat": -22.9183895, "lng": -43.1983225}}}, "partial_match": true, "place_id": "ChIJF3IcFV5_mQARfbkw_ML5_X8", "types": ["political", "sublocality", "sublocality_level_1"]}, {"address_components": [{"long_name": "São Domingos do Azeitão", "short_name": "São Domingos do Azeitão", "types": ["administrative_area_level_2", "political"]}, {"long_name": "Maranhão", "short_name": "MA", "types": ["administrative_area_level_1", "political"]}, {"long_name": "Brasil", "short_name": "BR", "types": ["country", "political"]}], "formatted_address": "São Domingos do Azeitão - MA, Brasil", "geometry": {"bounds": {"northeast": {"lat": -6.6799702, "lng": -44.40146559999999}, "southwest": {"lat": -7.015124800000001, "lng": -44.7910562}}, "location": {"lat": -6.8132208, "lng": -44.6450504}, "location_type": "APPROXIMATE", "viewport": {"northeast": {"lat": -6.6799702, "lng": -44.40146559999999}, "southwest": {"lat": -7.015124800000001, "lng": -44.7910562}}}, "partial_match": true, "place_id": "ChIJJ67Ivt_BgAcRgPF6py24YOo", "types": ["administrative_area_level_2", "political"]}], "status": "OK"}}
{"row_id": "MT_0043", "candidate_number": 1, "pattern": "unit_muni_state", "query": "Hospital Municipal Osnir Bortolini, Itiquira, MATO GROSSO, Brasil", "status": "OK", "error": null, "score": 175, "attempted_at": "2026-04-19T15:47:32Z", "response": {"results": [{"address_components": [{"long_name": "500", "short_name": "500", "types": ["street_number"]}, {"long_name": "Avenida Treze de Maio", "short_name": "Av. Treze de Maio", "types": ["route"]}, {"long_name": "CENTRO", "short_name": "CENTRO", "types": ["political", "sublocality", "sublocality_level_1"]}, {"long_name": "Itiquira", "short_name": "Itiquira", "types": ["administrative_area_level_2", "political"]}, {"long_name": "Mato Grosso", "short_name": "MT", "types": ["administrative_area_level_1", "political"]}, {"long_name": "Brasil", "short_name": "BR", "types": ["country", "political"]}, {"long_name": "78790-000", "short_name": "78790-000", "types": ["postal_code"]}], "formatted_address": "Av. Treze de Maio, 500 - CENTRO, Itiquira - MT, 78790-000, Brasil", "geometry": {"location": {"lat": -17.2036007, "lng": -54.1467109}, "location_type": "ROOFTOP", "viewport": {"northeast": {"lat": -17.20213146970849, "lng": -54.1454425197085}, "southwest": {"lat": -17.2048294302915, "lng": -54.1481404802915}}}, "navigation_points": [{"location": {"latitude": -17.2034133, "longitude": -54.1468365}}], "place_id": "ChIJH1eGgmFXeZMR_j8KQuIYaQk", "plus_code": {"compound_code": "QVW3+H8 Itiquira, MT", "global_code": "58J7QVW3+H8"}, "types": ["establishment", "health", "hospital", "point_of_interest"]}], "status": "OK"}}
{"row_id": "MT_0043", "candidate_number": 2, "pattern": "unit_muni_uf", "query": "Hospital Municipal Osnir Bortolini, Itiquira - MT, Brasil", "status": "OK", "error": null, "score": 175, "attempted_at": "2026-04-19T15:47:32Z", "response": {"results": [{"address_components": [{"long_name": "500", "short_name": "500", "types": ["street_number"]}, {"long_name": "Avenida Treze de Maio", "short_name": "Av. Treze de Maio", "types": ["route"]}, {"long_name": "CENTRO", "short_name": "CENTRO", "types": ["political", "sublocality", "sublocality_level_1"]}, {"long_name": "Itiquira", "short_name": "Itiquira", "types": ["administrative_area_level_2", "political"]}, {"long_name": "Mato Grosso", "short_name": "MT", "types": ["administrative_area_level_1", "political"]}, {"long_name": "Brasil", "short_name": "BR", "types": ["country", "political"]}, {"long_name": "78790-000", "short_name": "78790-000", "types": ["postal_code"]}], "formatted_address": "Av. Treze de Maio, 500 - CENTRO, Itiquira - MT, 78790-000, Brasil", "geometry": {"location": {"lat": -17.2036007, "lng": -54.1467109}, "location_type": "ROOFTOP", "viewport": {"northeast": {"lat": -17.20213146970849, "lng": -54.1454425197085}, "southwest": {"lat": -17.2048294302915, "lng": -54.1481404802915}}}, "navigation_points": [{"location": {"latitude": -17.2034133, "longitude": -54.1468365}}], "place_id": "ChIJH1eGgmFXeZMR_j8KQuIYaQk", "plus_code": {"compound_code": "QVW3+H8 Itiquira, MT", "global_code": "58J7QVW3+H8"}, "types": ["establishment", "health", "hospital", "point_of_interest"]}], "status": "OK"}}
{"row_id": "MT_0043", "candidate_number": 3, "pattern": "addr_muni_state", "query": "Avenida 13 e maio,500-Centro, Itiquira, MATO GROSSO, Brasil", "status": "OK", "error": null, "score": 95, "attempted_at": "2026-04-19T15:47:32Z", "response": {"results": [{"address_components": [{"long_name": "Itiquira", "short_name": "Itiquira", "types": ["locality", "political"]}, {"long_name": "Itiquira", "short_name": "Itiquira", "types": ["administrative_area_level_2", "political"]}, {"long_name": "Mato Grosso", "short_name": "MT", "types": ["administrative_area_level_1", "political"]}, {"long_name": "Brasil", "short_name": "BR", "types": ["country", "political"]}, {"long_name": "78790-000", "short_name": "78790-000", "types": ["postal_code"]}], "formatted_address": "Itiquira, MT, 78790-000, Brasil", "geometry": {"bounds": {"northeast": {"lat": -17.1975604, "lng": -54.1311116}, "southwest": {"lat": -17.2176833, "lng": -54.15837089999999}}, "location": {"lat": -17.2058819, "lng": -54.1468881}, "location_type": "APPROXIMATE", "viewport": {"northeast": {"lat": -17.1975604, "lng": -54.1311116}, "southwest": {"lat": -17.2176833, "lng": -54.15837089999999}}}, "partial_match": true, "place_id": "ChIJ685XJWxXeZMRyr3MYYYNSYo", "types": ["locality", "political"]}, {"address_components": [{"long_name": "Itiquira", "short_name": "Itiquira", "types": ["administrative_area_level_2", "political"]}, {"long_name": "Mato Grosso", "short_name": "MT", "types": ["administrative_area_level_1", "political"]}, {"long_name": "Brasil", "short_name": "BR", "types": ["country", "political"]}], "formatted_address": "Itiquira - MT, Brasil", "geometry": {"bounds": {"northeast": {"lat": -16.9335209, "lng": -53.6798228}, "southwest": {"lat": -17.6623372, "lng": -55.6027803}}, "location": {"lat": -17.205963, "lng": -54.1469561}, "location_type": "APPROXIMATE", "viewport": {"northeast": {"lat": -16.9335209, "lng": -53.6798228}, "southwest": {"lat": -17.6623372, "lng": -55.6027803}}}, "partial_match": true, "place_id": "ChIJ50tRoaTleJMRUnbU8mnmM3Y", "types": ["administrative_area_level_2", "political"]}], "status": "OK"}}
{"row_id": "MT_0043", "candidate_number": 4, "pattern": "unit_addr_muni_state", "query": "Hospital Municipal Osnir Bortolini, Avenida 13 e maio,500-Centro, Itiquira, MATO GROSSO, Brasil", "status": "OK", "error": null, "score": -5, "attempted_at": "2026-04-19T15:47:33Z", "response": {"results": [{"address_components": [{"long_name": "Centro Norte", "short_name": "Centro Norte", "types": ["political", "sublocality", "sublocality_level_1"]}, {"long_name": "Várzea Grande", "short_name": "Várzea Grande", "types": ["administrative_area_level_2", "political"]}, {"long_name": "Mato Grosso", "short_name": "MT", "types": ["administrative_area_level_1", "political"]}, {"long_name": "Brasil", "short_name": "BR", "types": ["country", "political"]}], "formatted_address": "Centro Norte, Várzea Grande - MT, Brasil", "geometry": {"bounds": {"northeast": {"lat": -15.637985, "lng": -56.0938016}, "southwest": {"lat": -15.6805452, "lng": -56.1470192}}, "location": {"lat": -15.6463035, "lng": -56.1294025}, "location_type": "APPROXIMATE", "viewport": {"northeast": {"lat": -15.637985, "lng": -56.0938016}, "southwest": {"lat": -15.6805452, "lng": -56.1470192}}}, "partial_match": true, "place_id": "ChIJr_v-neutnZMRIIvb7_q11B8", "types": ["political", "sublocality", "sublocality_level_1"]}, {"address_components": [{"long_name": "Itiquira", "short_name": "Itiquira", "types": ["administrative_area_level_2", "political"]}, {"long_name": "Mato Grosso", "short_name": "MT", "types": ["administrative_area_level_1", "political"]}, {"long_name": "Brasil", "short_name": "BR", "types": ["country", "political"]}], "formatted_address": "Itiquira - MT, Brasil", "geometry": {"bounds": {"northeast": {"lat": -16.9335209, "lng": -53.6798228}, "southwest": {"lat": -17.6623372, "lng": -55.6027803}}, "location": {"lat": -17.205963, "lng": -54.1469561}, "location_type": "APPROXIMATE", "viewport": {"northeast": {"lat": -16.9335209, "lng": -53.6798228}, "southwest": {"lat": -17.6623372, "lng": -55.6027803}}}, "partial_match": true, "place_id": "ChIJ50tRoaTleJMRUnbU8mnmM3Y", "types": ["administrative_area_level_2", "political"]}], "status": "OK"}}
{"row_id": "MT_0048", "candidate_number": 1, "pattern": "unit_muni_state", "query": "Hospital Municipal de Juruena Renilda de Fátima de Morais, Juruena, MATO GROSSO, Brasil", "status": "OK", "error": null, "score": 175, "attempted_at": "2026-04-19T15:47:33Z", "response": {"results": [{"address_components": [{"long_name": "20", "short_name": "20", "types": ["street_number"]}, {"long_name": "Travessa Lucinda Kniess", "short_name": "Travessa Lucinda Kniess", "types": ["route"]}, {"long_name": "Centro", "short_name": "Centro", "types": ["political", "sublocality", "sublocality_level_1"]}, {"long_name": "Juruena", "short_name": "Juruena", "types": ["administrative_area_level_2", "political"]}, {"long_name": "Mato Grosso", "short_name": "MT", "types": ["administrative_area_level_1", "political"]}, {"long_name": "Brasil", "short_name": "BR", "types": ["country", "political"]}, {"long_name": "78340-000", "short_name": "78340-000", "types": ["postal_code"]}], "formatted_address": "Travessa Lucinda Kniess, 20 - Centro, Juruena - MT, 78340-000, Brasil", "geometry": {"location": {"lat": -10.3256243, "lng": -58.49373120000001}, "location_type": "ROOFTOP", "viewport": {"northeast": {"lat": -10.3241886697085, "lng": -58.4924443697085}, "southwest": {"lat": -10.3268866302915, "lng": -58.49514233029151}}}, "navigation_points": [{"location": {"latitude": -10.3255025, "longitude": -58.4938186}}], "partial_match": true, "place_id": "ChIJZS_nIXYCspMRf-YzqniQdKQ", "plus_code": {"compound_code": "MGF4+QG Juruena - MT", "global_code": "58X3MGF4+QG"}, "types": ["establishment", "health", "hospital", "point_of_interest"]}], "status": "OK"}}
{"row_id": "MT_0048", "candidate_number": 2, "pattern": "unit_muni_uf", "query": "Hospital Municipal de Juruena Renilda de Fátima de Morais, Juruena - MT, Brasil", "status": "OK", "error": null, "score": 175, "attempted_at": "2026-04-19T15:47:34Z", "response": {"results": [{"address_components": [{"long_name": "20", "short_name": "20", "types": ["street_number"]}, {"long_name": "Travessa Lucinda Kniess", "short_name": "Travessa Lucinda Kniess", "types": ["route"]}, {"long_name": "Centro", "short_name": "Centro", "types": ["political", "sublocality", "sublocality_level_1"]}, {"long_name": "Juruena", "short_name": "Juruena", "types": ["administrative_area_level_2", "political"]}, {"long_name": "Mato Grosso", "short_name": "MT", "types": ["administrative_area_level_1", "political"]}, {"long_name": "Brasil", "short_name": "BR", "types": ["country", "political"]}, {"long_name": "78340-000", "short_name": "78340-000", "types": ["postal_code"]}], "formatted_address": "Travessa Lucinda Kniess, 20 - Centro, Juruena - MT, 78340-000, Brasil", "geometry": {"location": {"lat": -10.3256243, "lng": -58.49373120000001}, "location_type": "ROOFTOP", "viewport": {"northeast": {"lat": -10.3241886697085, "lng": -58.4924443697085}, "southwest": {"lat": -10.3268866302915, "lng": -58.49514233029151}}}, "navigation_points": [{"location": {"latitude": -10.3255025, "longitude": -58.4938186}}], "partial_match": true, "place_id": "ChIJZS_nIXYCspMRf-YzqniQdKQ", "plus_code": {"compound_code": "MGF4+QG Juruena - MT", "global_code": "58X3MGF4+QG"}, "types": ["establishment", "health", "hospital", "point_of_interest"]}], "status": "OK"}}
{"row_id": "MT_0048", "candidate_number": 3, "pattern": "addr_muni_state", "query": "Travessa Lucinda Kniess, Nº 20, Centro, Juruena, MATO GROSSO, Brasil", "status": "OK", "error": null, "score": 95, "attempted_at": "2026-04-19T15:47:34Z", "response": {"results": [{"address_components": [{"long_name": "Juruena", "short_name": "Juruena", "types": ["locality", "political"]}, {"long_name": "Juruena", "short_name": "Juruena", "types": ["administrative_area_level_2", "political"]}, {"long_name": "Mato Grosso", "short_name": "MT", "types": ["administrative_area_level_1", "political"]}, {"long_name": "Brasil", "short_name": "BR", "types": ["country", "political"]}, {"long_name": "78340-000", "short_name": "78340-000", "types": ["postal_code"]}], "formatted_address": "Juruena, MT, 78340-000, Brasil", "geometry": {"bounds": {"northeast": {"lat": -10.3201994, "lng": -58.4879798}, "southwest": {"lat": -10.3362193, "lng": -58.5036844}}, "location": {"lat": -10.3280971, "lng": -58.4943453}, "location_type": "APPROXIMATE", "viewport": {"northeast": {"lat": -10.3201994, "lng": -58.4879798}, "southwest": {"lat": -10.3362193, "lng": -58.5036844}}}, "partial_match": true, "place_id": "ChIJL1IsGwcArpMRd8e71Rmlp58", "types": ["locality", "political"]}, {"address_components": [{"long_name": "Juruena", "short_name": "Juruena", "types": ["administrative_area_level_2", "political"]}, {"long_name": "Mato Grosso", "short_name": "MT", "types": ["administrative_area_level_1", "political"]}, {"long_name": "Brasil", "short_name": "BR", "types": ["country", "political"]}], "formatted_address": "Juruena - MT, Brasil", "geometry": {"bounds": {"northeast": {"lat": -10.1281222, "lng": -58.3182564}, "southwest": {"lat": -10.7906625, "lng": -58.927188}}, "location": {"lat": -10.4292083, "lng": -58.64583689999999}, "location_type": "APPROXIMATE", "viewport": {"northeast": {"lat": -10.1281222, "lng": -58.3182564}, "southwest": {"lat": -10.7906625, "lng": -58.927188}}}, "partial_match": true, "place_id": "ChIJt9586wL3sZMRv6HR2x__77Q", "types": ["administrative_area_level_2", "political"]}], "status": "OK"}}
{"row_id": "MT_0048", "candidate_number": 4, "pattern": "unit_addr_muni_state", "query": "Hospital Municipal de Juruena Renilda de Fátima de Morais, Travessa Lucinda Kniess, Nº 20, Centro, Juruena, MATO GROSSO, Brasil", "status": "OK", "error": null, "score": -5, "attempted_at": "2026-04-19T15:47:35Z", "response": {"results": [{"address_components": [{"long_name": "Centro Norte", "short_name": "Centro Norte", "types": ["political", "sublocality", "sublocality_level_1"]}, {"long_name": "Várzea Grande", "short_name": "Várzea Grande", "types": ["administrative_area_level_2", "political"]}, {"long_name": "Mato Grosso", "short_name": "MT", "types": ["administrative_area_level_1", "political"]}, {"long_name": "Brasil", "short_name": "BR", "types": ["country", "political"]}], "formatted_address": "Centro Norte, Várzea Grande - MT, Brasil", "geometry": {"bounds": {"northeast": {"lat": -15.637985, "lng": -56.0938016}, "southwest": {"lat": -15.6805452, "lng": -56.1470192}}, "location": {"lat": -15.6463035, "lng": -56.1294025}, "location_type": "APPROXIMATE", "viewport": {"northeast": {"lat": -15.637985, "lng": -56.0938016}, "southwest": {"lat": -15.6805452, "lng": -56.1470192}}}, "partial_match": true, "place_id": "ChIJr_v-neutnZMRIIvb7_q11B8", "types": ["political", "sublocality", "sublocality_level_1"]}, {"address_components": [{"long_name": "Juruena", "short_name": "Juruena", "types": ["locality", "political"]}, {"long_name": "Juruena", "short_name": "Juruena", "types": ["administrative_area_level_2", "political"]}, {"long_name": "Mato Grosso", "short_name": "MT", "types": ["administrative_area_level_1", "political"]}, {"long_name": "Brasil", "short_name": "BR", "types": ["country", "political"]}, {"long_name": "78340-000", "short_name": "78340-000", "types": ["postal_code"]}], "formatted_address": "Juruena, MT, 78340-000, Brasil", "geometry": {"bounds": {"northeast": {"lat": -10.3201994, "lng": -58.4879798}, "southwest": {"lat": -10.3362193, "lng": -58.5036844}}, "location": {"lat": -10.3280971, "lng": -58.4943453}, "location_type": "APPROXIMATE", "viewport": {"northeast": {"lat": -10.3201994, "lng": -58.4879798}, "southwest": {"lat": -10.3362193, "lng": -58.5036844}}}, "partial_match": true, "place_id": "ChIJL1IsGwcArpMRd8e71Rmlp58", "types": ["locality", "political"]}], "status": "OK"}}
{"row_id": "MT_0053", "candidate_number": 1, "pattern": "unit_muni_state", "query": "Hospital Municipal, Matupá, MATO GROSSO, Brasil", "status": "OK", "error": null, "score": 105, "attempted_at": "2026-04-19T15:47:35Z", "response": {"results": [{"address_components": [{"long_name": "Matupá", "short_name": "Matupá", "types": ["administrative_area_level_2", "political"]}, {"long_name": "Mato Grosso", "short_name": "MT", "types": ["administrative_area_level_1", "political"]}, {"long_name": "Brasil", "short_name": "BR", "types": ["country", "political"]}], "formatted_address": "Matupá - MT, Brasil", "geometry": {"bounds": {"northeast": {"lat": -9.5719079, "lng": -53.58648640000001}, "southwest": {"lat": -10.3905137, "lng": -55.24215479999999}}, "location": {"lat": -10.1701541, "lng": -54.9255998}, "location_type": "APPROXIMATE", "viewport": {"northeast": {"lat": -9.5719079, "lng": -53.58648640000001}, "southwest": {"lat": -10.3905137, "lng": -55.24215479999999}}}, "partial_match": true, "place_id": "ChIJCyXeSA0vB5MRdYkTQgNJVB8", "types": ["administrative_area_level_2", "political"]}], "status": "OK"}}
{"row_id": "MT_0053", "candidate_number": 2, "pattern": "unit_muni_uf", "query": "Hospital Municipal, Matupá - MT, Brasil", "status": "OK", "error": null, "score": 105, "attempted_at": "2026-04-19T15:47:35Z", "response": {"results": [{"address_components": [{"long_name": "Matupá", "short_name": "Matupá", "types": ["administrative_area_level_2", "political"]}, {"long_name": "Mato Grosso", "short_name": "MT", "types": ["administrative_area_level_1", "political"]}, {"long_name": "Brasil", "short_name": "BR", "types": ["country", "political"]}], "formatted_address": "Matupá - MT, Brasil", "geometry": {"bounds": {"northeast": {"lat": -9.5719079, "lng": -53.58648640000001}, "southwest": {"lat": -10.3905137, "lng": -55.24215479999999}}, "location": {"lat": -10.1701541, "lng": -54.9255998}, "location_type": "APPROXIMATE", "viewport": {"northeast": {"lat": -9.5719079, "lng": -53.58648640000001}, "southwest": {"lat": -10.3905137, "lng": -55.24215479999999}}}, "partial_match": true, "place_id": "ChIJCyXeSA0vB5MRdYkTQgNJVB8", "types": ["administrative_area_level_2", "political"]}], "status": "OK"}}
{"row_id": "MT_0053", "candidate_number": 3, "pattern": "addr_muni_state", "query": "Rua 01, n.º 24-Centro, Matupá, MATO GROSSO, Brasil", "status": "OK", "error": null, "score": -5, "attempted_at": "2026-04-19T15:47:35Z", "response": {"results": [{"address_components": [{"long_name": "Centro Norte", "short_name": "Centro Norte", "types": ["political", "sublocality", "sublocality_level_1"]}, {"long_name": "Várzea Grande", "short_name": "Várzea Grande", "types": ["administrative_area_level_2", "political"]}, {"long_name": "Mato Grosso", "short_name": "MT", "types": ["administrative_area_level_1", "political"]}, {"long_name": "Brasil", "short_name": "BR", "types": ["country", "political"]}], "formatted_address": "Centro Norte, Várzea Grande - MT, Brasil", "geometry": {"bounds": {"northeast": {"lat": -15.637985, "lng": -56.0938016}, "southwest": {"lat": -15.6805452, "lng": -56.1470192}}, "location": {"lat": -15.6463035, "lng": -56.1294025}, "location_type": "APPROXIMATE", "viewport": {"northeast": {"lat": -15.637985, "lng": -56.0938016}, "southwest": {"lat": -15.6805452, "lng": -56.1470192}}}, "partial_match": true, "place_id": "ChIJr_v-neutnZMRIIvb7_q11B8", "types": ["political", "sublocality", "sublocality_level_1"]}, {"address_components": [{"long_name": "Matupá", "short_name": "Matupá", "types": ["administrative_area_level_2", "political"]}, {"long_name": "Mato Grosso", "short_name": "MT", "types": ["administrative_area_level_1", "political"]}, {"long_name": "Brasil", "short_name": "BR", "types": ["country", "political"]}], "formatted_address": "Matupá - MT, Brasil", "geometry": {"bounds": {"northeast": {"lat": -9.5719079, "lng": -53.58648640000001}, "southwest": {"lat": -10.3905137, "lng": -55.24215479999999}}, "location": {"lat": -10.1701541, "lng": -54.9255998}, "location_type": "APPROXIMATE", "viewport": {"northeast": {"lat": -9.5719079, "lng": -53.58648640000001}, "southwest": {"lat": -10.3905137, "lng": -55.24215479999999}}}, "partial_match": true, "place_id": "ChIJCyXeSA0vB5MRdYkTQgNJVB8", "types": ["administrative_area_level_2", "political"]}, {"address_components": [{"long_name": "Matupá", "short_name": "Matupá", "types": ["locality", "political"]}, {"long_name": "Matupá", "short_name": "Matupá", "types": ["administrative_area_level_2", "political"]}, {"long_name": "Mato Grosso", "short_name": "MT", "types": ["administrative_area_level_1", "political"]}, {"long_name": "Brasil", "short_name": "BR", "types": ["country", "political"]}, {"long_name": "78525-000", "short_name": "78525-000", "types": ["postal_code"]}], "formatted_address": "Matupá, MT, 78525-000, Brasil", "geometry": {"location": {"lat": -10.1701436, "lng": -54.9256046}, "location_type": "APPROXIMATE", "viewport": {"northeast": {"lat": -10.1701436, "lng": -54.9236833197085}, "southwest": {"lat": -10.1787, "lng": -54.9263812802915}}}, "partial_match": true, "place_id": "ChIJ3aTt1TsjB5MRdZH5z3U4ZnA", "types": ["locality", "political"]}], "status": "OK"}}
{"row_id": "MT_0053", "candidate_number": 4, "pattern": "unit_addr_muni_state", "query": "Hospital Municipal, Rua 01, n.º 24-Centro, Matupá, MATO GROSSO, Brasil", "status": "OK", "error": null, "score": -5, "attempted_at": "2026-04-19T15:47:36Z", "response": {"results": [{"address_components": [{"long_name": "Centro Norte", "short_name": "Centro Norte", "types": ["political", "sublocality", "sublocality_level_1"]}, {"long_name": "Várzea Grande", "short_name": "Várzea Grande", "types": ["administrative_area_level_2", "political"]}, {"long_name": "Mato Grosso", "short_name": "MT", "types": ["administrative_area_level_1", "political"]}, {"long_name": "Brasil", "short_name": "BR", "types": ["country", "political"]}], "formatted_address": "Centro Norte, Várzea Grande - MT, Brasil", "geometry": {"bounds": {"northeast": {"lat": -15.637985, "lng": -56.0938016}, "southwest": {"lat": -15.6805452, "lng": -56.1470192}}, "location": {"lat": -15.6463035, "lng": -56.1294025}, "location_type": "APPROXIMATE", "viewport": {"northeast": {"lat": -15.637985, "lng": -56.0938016}, "southwest": {"lat": -15.6805452, "lng": -56.1470192}}}, "partial_match": true, "place_id": "ChIJr_v-neutnZMRIIvb7_q11B8", "types": ["political", "sublocality", "sublocality_level_1"]}, {"address_components": [{"long_name": "Matupá", "short_name": "Matupá", "types": ["locality", "political"]}, {"long_name": "Matupá", "short_name": "Matupá", "types": ["administrative_area_level_2", "political"]}, {"long_name": "Mato Grosso", "short_name": "MT", "types": ["administrative_area_level_1", "political"]}, {"long_name": "Brasil", "short_name": "BR", "types": ["country", "political"]}, {"long_name": "78525-000", "short_name": "78525-000", "types": ["postal_code"]}], "formatted_address": "Matupá, MT, 78525-000, Brasil", "geometry": {"location": {"lat": -10.1701436, "lng": -54.9256046}, "location_type": "APPROXIMATE", "viewport": {"northeast": {"lat": -10.1701436, "lng": -54.9236833197085}, "southwest": {"lat": -10.1787, "lng": -54.9263812802915}}}, "partial_match": true, "place_id": "ChIJ3aTt1TsjB5MRdZH5z3U4ZnA", "types": ["locality", "political"]}, {"address_components": [{"long_name": "Matupá", "short_name": "Matupá", "types": ["administrative_area_level_2", "political"]}, {"long_name": "Mato Grosso", "short_name": "MT", "types": ["administrative_area_level_1", "political"]}, {"long_name": "Brasil", "short_name": "BR", "types": ["country", "political"]}], "formatted_address": "Matupá - MT, Brasil", "geometry": {"bounds": {"northeast": {"lat": -9.5719079, "lng": -53.58648640000001}, "southwest": {"lat": -10.3905137, "lng": -55.24215479999999}}, "location": {"lat": -10.1701541, "lng": -54.9255998}, "location_type": "APPROXIMATE", "viewport": {"northeast": {"lat": -9.5719079, "lng": -53.58648640000001}, "southwest": {"lat": -10.3905137, "lng": -55.24215479999999}}}, "partial_match": true, "place_id": "ChIJCyXeSA0vB5MRdYkTQgNJVB8", "types": ["administrative_area_level_2", "political"]}], "status": "OK"}}
{"row_id": "MT_0091", "candidate_number": 1, "pattern": "unit_muni_state", "query": "Centro de Saúde de São José, São José do Povo, MATO GROSSO, Brasil", "status": "OK", "error": null, "score": 95, "attempted_at": "2026-04-19T15:47:36Z", "response": {"results": [{"address_components": [{"long_name": "São José do Povo", "short_name": "São José do Povo", "types": ["locality", "political"]}, {"long_name": "São José do Povo", "short_name": "São José do Povo", "types": ["administrative_area_level_4", "political"]}, {"long_name": "São José do Povo", "short_name": "São José do Povo", "types": ["administrative_area_level_2", "political"]}, {"long_name": "Mato Grosso", "short_name": "MT", "types": ["administrative_area_level_1", "political"]}, {"long_name": "Brasil", "short_name": "BR", "types": ["country", "political"]}, {"long_name": "78773-000", "short_name": "78773-000", "types": ["postal_code"]}], "formatted_address": "São José do Povo, MT, 78773-000, Brasil", "geometry": {"bounds": {"northeast": {"lat": -16.4598076, "lng": -54.2477107}, "southwest": {"lat": -16.4714788, "lng": -54.2613593}}, "location": {"lat": -16.4642898, "lng": -54.2547283}, "location_type": "APPROXIMATE", "viewport": {"northeast": {"lat": -16.4598076, "lng": -54.2477107}, "southwest": {"lat": -16.4714788, "lng": -54.2613593}}}, "partial_match": true, "place_id": "ChIJUe53uIKNeZMRRSVZLJMbtt8", "types": ["locality", "political"]}, {"address_components": [{"long_name": "Jardim Sao Jose", "short_name": "Jardim Sao Jose", "types": ["political", "sublocality", "sublocality_level_1"]}, {"long_name": "Pontes e Lacerda", "short_name": "Pontes e Lacerda", "types": ["administrative_area_level_2", "political"]}, {"long_name": "Mato Grosso", "short_name": "MT", "types": ["administrative_area_level_1", "political"]}, {"long_name": "Brasil", "short_name": "BR", "types": ["country", "political"]}, {"long_name": "78250-000", "short_name": "78250-000", "types": ["postal_code"]}], "formatted_address": "Jardim Sao Jose, Pontes e Lacerda - MT, 78250-000, Brasil", "geometry": {"bounds": {"northeast": {"lat": -15.2258506, "lng": -59.3165485}, "southwest": {"lat": -15.2376832, "lng": -59.32878079999999}}, "location": {"lat": -15.2312753, "lng": -59.3239321}, "location_type": "APPROXIMATE", "viewport": {"northeast": {"lat": -15.2258506, "lng": -59.3165485}, "southwest": {"lat": -15.2376832, "lng": -59.32878079999999}}}, "partial_match": true, "place_id": "ChIJSfiqSS7vlpMRobMLnTEs_ZA", "types": ["political", "sublocality", "sublocality_level_1"]}], "status": "OK"}}
{"row_id": "MT_0091", "candidate_number": 2, "pattern": "unit_muni_uf", "query": "Centro de Saúde de São José, São José do Povo - MT, Brasil", "status": "OK", "error": null, "score": 95, "attempted_at": "2026-04-19T15:47:36Z", "response": {"results": [{"address_components": [{"long_name": "São José do Povo", "short_name": "São José do Povo", "types": ["locality", "political"]}, {"long_name": "São José do Povo", "short_name": "São José do Povo", "types": ["administrative_area_level_4", "political"]}, {"long_name": "São José do Povo", "short_name": "São José do Povo", "types": ["administrative_area_level_2", "political"]}, {"long_name": "Mato Grosso", "short_name": "MT", "types": ["administrative_area_level_1", "political"]}, {"long_name": "Brasil", "short_name": "BR", "types": ["country", "political"]}, {"long_name": "78773-000", "short_name": "78773-000", "types": ["postal_code"]}], "formatted_address": "São José do Povo, MT, 78773-000, Brasil", "geometry": {"bounds": {"northeast": {"lat": -16.4598076, "lng": -54.2477107}, "southwest": {"lat": -16.4714788, "lng": -54.2613593}}, "location": {"lat": -16.4642898, "lng": -54.2547283}, "location_type": "APPROXIMATE", "viewport": {"northeast": {"lat": -16.4598076, "lng": -54.2477107}, "southwest": {"lat": -16.4714788, "lng": -54.2613593}}}, "partial_match": true, "place_id": "ChIJUe53uIKNeZMRRSVZLJMbtt8", "types": ["locality", "political"]}], "status": "OK"}}
{"row_id": "MT_0091", "candidate_number": 3, "pattern": "addr_muni_state", "query": "Rua Castelo Branco, s/n.º Centro, São José do Povo, MATO GROSSO, Brasil", "status": "OK", "error": null, "score": 110, "attempted_at": "2026-04-19T15:47:37Z", "response": {"results": [{"address_components": [{"long_name": "Rua Castelo Branco", "short_name": "R. Castelo Branco", "types": ["route"]}, {"long_name": "São José do Povo", "short_name": "São José do Povo", "types": ["administrative_area_level_4", "political"]}, {"long_name": "São José do Povo", "short_name": "São José do Povo", "types": ["administrative_area_level_2", "political"]}, {"long_name": "Mato Grosso", "short_name": "MT", "types": ["administrative_area_level_1", "political"]}, {"long_name": "Brasil", "short_name": "BR", "types": ["country", "political"]}, {"long_name": "78773-000", "short_name": "78773-000", "types": ["postal_code"]}], "formatted_address": "R. Castelo Branco - São José do Povo, MT, 78773-000, Brasil", "geometry": {"bounds": {"northeast": {"lat": -16.459941, "lng": -54.2524874}, "southwest": {"lat": -16.4681505, "lng": -54.2545347}}, "location": {"lat": -16.4640829, "lng": -54.2537333}, "location_type": "GEOMETRIC_CENTER", "viewport": {"northeast": {"lat": -16.459941, "lng": -54.2521620697085}, "southwest": {"lat": -16.4681505, "lng": -54.2548600302915}}}, "partial_match": true, "place_id": "ChIJj2kvpYiNeZMRLmdISelec4U", "types": ["route"]}, {"address_components": [{"long_name": "Centro", "short_name": "Centro", "types": ["political", "sublocality", "sublocality_level_1"]}, {"long_name": "São José", "short_name": "São José", "types": ["administrative_area_level_2", "political"]}, {"long_name": "Santa Catarina", "short_name": "SC", "types": ["administrative_area_level_1", "political"]}, {"long_name": "Brasil", "short_name": "BR", "types": ["country", "political"]}], "formatted_address": "Centro, São José - SC, Brasil", "geometry": {"bounds": {"northeast": {"lat": -27.6061819, "lng": -48.6244843}, "southwest": {"lat": -27.6242756, "lng": -48.6416169}}, "location": {"lat": -27.6129026, "lng": -48.6313699}, "location_type": "APPROXIMATE", "viewport": {"northeast": {"lat": -27.6061819, "lng": -48.6244843}, "southwest": {"lat": -27.6242756, "lng": -48.6416169}}}, "partial_match": true, "place_id": "ChIJ6zozOwk2J5URsNvdS2jslbI", "types": ["political", "sublocality", "sublocality_level_1"]}], "status": "OK"}}
{"row_id": "MT_0091", "candidate_number": 4, "pattern": "unit_addr_muni_state", "query": "Centro de Saúde de São José, Rua Castelo Branco, s/n.º Centro, São José do Povo, MATO GROSSO, Brasil", "status": "OK", "error": null, "score": -75, "attempted_at": "2026-04-19T15:47:37Z", "response": {"results": [{"address_components": [{"long_name": "Centro", "short_name": "Centro", "types": ["political", "sublocality", "sublocality_level_1"]}, {"long_name": "São José", "short_name": "São José", "types": ["administrative_area_level_2", "political"]}, {"long_name": "Santa Catarina", "short_name": "SC", "types": ["administrative_area_level_1", "political"]}, {"long_name": "Brasil", "short_name": "BR", "types": ["country", "political"]}], "formatted_address": "Centro, São José - SC, Brasil", "geometry": {"bounds": {"northeast": {"lat": -27.6061819, "lng": -48.6244843}, "southwest": {"lat": -27.6242756, "lng": -48.6416169}}, "location": {"lat": -27.6129026, "lng": -48.6313699}, "location_type": "APPROXIMATE", "viewport": {"northeast": {"lat": -27.6061819, "lng": -48.6244843}, "southwest": {"lat": -27.6242756, "lng": -48.6416169}}}, "partial_match": true, "place_id": "ChIJ6zozOwk2J5URsNvdS2jslbI", "types": ["political", "sublocality", "sublocality_level_1"]}, {"address_components": [{"long_name": "Rua Castelo Branco & Rua José Salmem", "short_name": "R. Castelo Branco & R. José Salmem", "types": ["intersection"]}, {"long_name": "São José do Povo", "short_name": "São José do Povo", "types": ["administrative_area_level_4", "political"]}, {"long_name": "São José do Povo", "short_name": "São José do Povo", "types": ["administrative_area_level_2", "political"]}, {"long_name": "Mato Grosso", "short_name": "MT", "types": ["administrative_area_level_1", "political"]}, {"long_name": "Brasil", "short_name": "BR", "types": ["country", "political"]}, {"long_name": "78773-000", "short_name": "78773-000", "types": ["postal_code"]}], "formatted_address": "R. Castelo Branco & R. José Salmem - São José do Povo, MT, 78773-000, Brasil", "geometry": {"location": {"lat": -16.4652679, "lng": -54.2534886}, "location_type": "GEOMETRIC_CENTER", "viewport": {"northeast": {"lat": -16.4639189197085, "lng": -54.2521396197085}, "southwest": {"lat": -16.4666168802915, "lng": -54.25483758029149}}}, "partial_match": true, "place_id": "Ek9SLiBDYXN0ZWxvIEJyYW5jbyAmIFIuIEpvc8OpIFNhbG1lbSAtIFPDo28gSm9zw6kgZG8gUG92bywgTVQsIDc4NzczLTAwMCwgQnJhemlsImYiZAoUChIJdcs3pIiNeZMRG57Y49d1J0cSFAoSCXXLN6SIjXmTERue2OPXdSdHGhQKEgmPaS-liI15kxEuZ0hJ6V5zhRoUChIJwfZ6ooiNeZMRdtc8NON_sAkiCg15mS_2FRqTqd8", "types": ["intersection"]}], "status": "OK"}}
{"row_id": "PA_0103", "candidate_number": 1, "pattern": "unit_muni_state", "query": "Hospital de Pequeno Porte, Oeiras do Pará, PARÁ, Brasil", "status": "OK", "error": null, "score": 95, "attempted_at": "2026-04-19T15:47:38Z", "response": {"results": [{"address_components": [{"long_name": "Oeiras do Pará", "short_name": "Oeiras do Pará", "types": ["locality", "political"]}, {"long_name": "Oeiras do Pará", "short_name": "Oeiras do Pará", "types": ["administrative_area_level_2", "political"]}, {"long_name": "Pará", "short_name": "PA", "types": ["administrative_area_level_1", "political"]}, {"long_name": "Brasil", "short_name": "BR", "types": ["country", "political"]}, {"long_name": "68470-000", "short_name": "68470-000", "types": ["postal_code"]}], "formatted_address": "Oeiras do Pará, PA, 68470-000, Brasil", "geometry": {"bounds": {"northeast": {"lat": -1.9936734, "lng": -49.8540867}, "southwest": {"lat": -2.0164737, "lng": -49.8700863}}, "location": {"lat": -2.0031802, "lng": -49.8577508}, "location_type": "APPROXIMATE", "viewport": {"northeast": {"lat": -1.9936734, "lng": -49.8540867}, "southwest": {"lat": -2.0164737, "lng": -49.8700863}}}, "partial_match": true, "place_id": "ChIJMR6ERqhavZIRbpRon6nxF0Q", "types": ["locality", "political"]}], "status": "OK"}}
{"row_id": "PA_0103", "candidate_number": 2, "pattern": "unit_muni_uf", "query": "Hospital de Pequeno Porte, Oeiras do Pará - PA, Brasil", "status": "OK", "error": null, "score": 95, "attempted_at": "2026-04-19T15:47:38Z", "response": {"results": [{"address_components": [{"long_name": "Oeiras do Pará", "short_name": "Oeiras do Pará", "types": ["locality", "political"]}, {"long_name": "Oeiras do Pará", "short_name": "Oeiras do Pará", "types": ["administrative_area_level_2", "political"]}, {"long_name": "Pará", "short_name": "PA", "types": ["administrative_area_level_1", "political"]}, {"long_name": "Brasil", "short_name": "BR", "types": ["country", "political"]}, {"long_name": "68470-000", "short_name": "68470-000", "types": ["postal_code"]}], "formatted_address": "Oeiras do Pará, PA, 68470-000, Brasil", "geometry": {"bounds": {"northeast": {"lat": -1.9936734, "lng": -49.8540867}, "southwest": {"lat": -2.0164737, "lng": -49.8700863}}, "location": {"lat": -2.0031802, "lng": -49.8577508}, "location_type": "APPROXIMATE", "viewport": {"northeast": {"lat": -1.9936734, "lng": -49.8540867}, "southwest": {"lat": -2.0164737, "lng": -49.8700863}}}, "partial_match": true, "place_id": "ChIJMR6ERqhavZIRbpRon6nxF0Q", "types": ["locality", "political"]}], "status": "OK"}}
{"row_id": "PA_0103", "candidate_number": 3, "pattern": "addr_muni_state", "query": "Travessa Honório Bastos, 1008 - Santa Maria, Oeiras do Pará, PARÁ, Brasil", "status": "OK", "error": null, "score": 150, "attempted_at": "2026-04-19T15:47:38Z", "response": {"results": [{"address_components": [{"long_name": "Rua Honório Bastos", "short_name": "R. Honório Bastos", "types": ["route"]}, {"long_name": "Oeiras do Pará", "short_name": "Oeiras do Pará", "types": ["administrative_area_level_2", "political"]}, {"long_name": "Pará", "short_name": "PA", "types": ["administrative_area_level_1", "political"]}, {"long_name": "Brasil", "short_name": "BR", "types": ["country", "political"]}, {"long_name": "68470-000", "short_name": "68470-000", "types": ["postal_code"]}], "formatted_address": "R. Honório Bastos, Oeiras do Pará - PA, 68470-000, Brasil", "geometry": {"bounds": {"northeast": {"lat": -2.003120199999974, "lng": -49.85769109999999}, "southwest": {"lat": -2.012216300000026, "lng": -49.86510399999999}}, "location": {"lat": -2.0066349, "lng": -49.8615054}, "location_type": "GEOMETRIC_CENTER", "viewport": {"northeast": {"lat": -2.003120199999974, "lng": -49.85769109999999}, "southwest": {"lat": -2.012216300000026, "lng": -49.86510399999999}}}, "partial_match": true, "place_id": "EjtSLiBIb27Ds3JpbyBCYXN0b3MsIE9laXJhcyBkbyBQYXLDoSAtIFBBLCA2ODQ3MC0wMDAsIEJyYXppbCIuKiwKFAoSCRknh253UL2SEY9RjGhiv5-UEhQKEgkxHoRGqFq9khFulGifqfEXRA", "types": ["route"]}, {"address_components": [{"long_name": "Santa Maria", "short_name": "Santa Maria", "types": ["administrative_area_level_2", "political"]}, {"long_name": "Rio Grande do Sul", "short_name": "RS", "types": ["administrative_area_level_1", "political"]}, {"long_name": "Brasil", "short_name": "BR", "types": ["country", "political"]}], "formatted_address": "Santa Maria - RS, Brasil", "geometry": {"bounds": {"northeast": {"lat": -29.5494931, "lng": -53.5172748}, "southwest": {"lat": -30.0056214, "lng": -54.1320254}}, "location": {"lat": -29.68949839999999, "lng": -53.7923441}, "location_type": "APPROXIMATE", "viewport": {"northeast": {"lat": -29.5494931, "lng": -53.5172748}, "southwest": {"lat": -30.0056214, "lng": -54.1320254}}}, "partial_match": true, "place_id": "ChIJv2elDV3LA5URl3J_fx6cTaQ", "types": ["administrative_area_level_2", "political"]}], "status": "OK"}}
{"row_id": "PA_0103", "candidate_number": 4, "pattern": "unit_addr_muni_state", "query": "Hospital de Pequeno Porte, Travessa Honório Bastos, 1008 - Santa Maria, Oeiras do Pará, PARÁ, Brasil", "status": "OK", "error": null, "score": -75, "attempted_at": "2026-04-19T15:47:39Z", "response": {"results": [{"address_components": [{"long_name": "Santa Maria", "short_name": "Santa Maria", "types": ["administrative_area_level_2", "political"]}, {"long_name": "Rio Grande do Sul", "short_name": "RS", "types": ["administrative_area_level_1", "political"]}, {"long_name": "Brasil", "short_name": "BR", "types": ["country", "political"]}], "formatted_address": "Santa Maria - RS, Brasil", "geometry": {"bounds": {"northeast": {"lat": -29.5494931, "lng": -53.5172748}, "southwest": {"lat": -30.0056214, "lng": -54.1320254}}, "location": {"lat": -29.68949839999999, "lng": -53.7923441}, "location_type": "APPROXIMATE", "viewport": {"northeast": {"lat": -29.5494931, "lng": -53.5172748}, "southwest": {"lat": -30.0056214, "lng": -54.1320254}}}, "partial_match": true, "place_id": "ChIJv2elDV3LA5URl3J_fx6cTaQ", "types": ["administrative_area_level_2", "political"]}, {"address_components": [{"long_name": "Rua Honório Bastos", "short_name": "R. Honório Bastos", "types": ["route"]}, {"long_name": "Oeiras do Pará", "short_name": "Oeiras do Pará", "types": ["administrative_area_level_2", "political"]}, {"long_name": "Pará", "short_name": "PA", "types": ["administrative_area_level_1", "political"]}, {"long_name": "Brasil", "short_name": "BR", "types": ["country", "political"]}, {"long_name": "68470-000", "short_name": "68470-000", "types": ["postal_code"]}], "formatted_address": "R. Honório Bastos, Oeiras do Pará - PA, 68470-000, Brasil", "geometry": {"bounds": {"northeast": {"lat": -2.0025195, "lng": -49.8547266}, "southwest": {"lat": -2.2124478, "lng": -49.9879739}}, "location": {"lat": -2.1042928, "lng": -49.9466036}, "location_type": "GEOMETRIC_CENTER", "viewport": {"northeast": {"lat": -2.0025195, "lng": -49.8547266}, "southwest": {"lat": -2.2124478, "lng": -49.9879739}}}, "partial_match": true, "place_id": "ChIJGSeHbndQvZIRj1GMaGK_n5Q", "types": ["route"]}], "status": "OK"}}
{"row_id": "PE_0009", "candidate_number": 1, "pattern": "unit_muni_state", "query": "Hospital Regional Sílvio Magalhães, Palmares, PERNAMBUCO, Brasil", "status": "OK", "error": null, "score": 110, "attempted_at": "2026-04-19T15:47:39Z", "response": {"results": [{"address_components": [{"long_name": "Travessa Agamenon Magalhães", "short_name": "Tv. Agamenon Magalhães", "types": ["route"]}, {"long_name": "Palmares", "short_name": "Palmares", "types": ["administrative_area_level_4", "political"]}, {"long_name": "Palmares", "short_name": "Palmares", "types": ["administrative_area_level_2", "political"]}, {"long_name": "Pernambuco", "short_name": "PE", "types": ["administrative_area_level_1", "political"]}, {"long_name": "Brasil", "short_name": "BR", "types": ["country", "political"]}, {"long_name": "55540-000", "short_name": "55540-000", "types": ["postal_code"]}], "formatted_address": "Tv. Agamenon Magalhães - Palmares, PE, 55540-000, Brasil", "geometry": {"bounds": {"northeast": {"lat": -8.6716991, "lng": -35.5876697}, "southwest": {"lat": -8.6736186, "lng": -35.5904048}}, "location": {"lat": -8.6726909, "lng": -35.5889938}, "location_type": "GEOMETRIC_CENTER", "viewport": {"northeast": {"lat": -8.671309869708498, "lng": -35.5876697}, "southwest": {"lat": -8.674007830291503, "lng": -35.5904048}}}, "partial_match": true, "place_id": "ChIJJRe-xnSgAAcRm9VygBrT1wQ", "types": ["route"]}, {"address_components": [{"long_name": "Rua Agamenon Magalhães", "short_name": "R. Agamenon Magalhães", "types": ["route"]}, {"long_name": "Palmares", "short_name": "Palmares", "types": ["administrative_area_level_4", "political"]}, {"long_name": "Palmares", "short_name": "Palmares", "types": ["administrative_area_level_2", "political"]}, {"long_name": "Pernambuco", "short_name": "PE", "types": ["administrative_area_level_1", "political"]}, {"long_name": "Brasil", "short_name": "BR", "types": ["country", "political"]}, {"long_name": "55540-000", "short_name": "55540-000", "types": ["postal_code"]}], "formatted_address": "R. Agamenon Magalhães - Palmares, PE, 55540-000, Brasil", "geometry": {"bounds": {"northeast": {"lat": -8.673274400000002, "lng": -35.5889945}, "southwest": {"lat": -8.674486, "lng": -35.5902338}}, "location": {"lat": -8.6738664, "lng": -35.5896533}, "location_type": "GEOMETRIC_CENTER", "viewport": {"northeast": {"lat": -8.6725312197085, "lng": -35.5882651697085}, "southwest": {"lat": -8.675229180291504, "lng": -35.5909631302915}}}, "partial_match": true, "place_id": "ChIJuSbjnnSgAAcR__gRHaC-0-8", "types": ["route"]}], "status": "OK"}}
{"row_id": "PE_0009", "candidate_number": 2, "pattern": "unit_muni_uf", "query": "Hospital Regional Sílvio Magalhães, Palmares - PE, Brasil", "status": "OK", "error": null, "score": 110, "attempted_at": "2026-04-19T15:47:40Z", "response": {"results": [{"address_components": [{"long_name": "Rua Silvio Carlos da Silva", "short_name": "R. Silvio Carlos da Silva", "types": ["route"]}, {"long_name": "Palmares", "short_name": "Palmares", "types": ["administrative_area_level_4", "political"]}, {"long_name": "Palmares", "short_name": "Palmares", "types": ["administrative_area_level_2", "political"]}, {"long_name": "Pernambuco", "short_name": "PE", "types": ["administrative_area_level_1", "political"]}, {"long_name": "Brasil", "short_name": "BR", "types": ["country", "political"]}, {"long_name": "55540-000", "short_name": "55540-000", "types": ["postal_code"]}], "formatted_address": "R. Silvio Carlos da Silva - Palmares, PE, 55540-000, Brasil", "geometry": {"bounds": {"northeast": {"lat": -8.678972400000001, "lng": -35.58074630000001}, "southwest": {"lat": -8.6800486, "lng": -35.5812605}}, "location": {"lat": -8.6795247, "lng": -35.5810092}, "location_type": "GEOMETRIC_CENTER", "viewport": {"northeast": {"lat": -8.678161519708498, "lng": -35.5796544197085}, "southwest": {"lat": -8.680859480291502, "lng": -35.5823523802915}}}, "partial_match": true, "place_id": "ChIJOzTx4BGgAAcRwITjLfI06lI", "types": ["route"]}, {"address_components": [{"long_name": "Travessa Agamenon Magalhães", "short_name": "Tv. Agamenon Magalhães", "types": ["route"]}, {"long_name": "Palmares", "short_name": "Palmares", "types": ["administrative_area_level_4", "political"]}, {"long_name": "Palmares", "short_name": "Palmares", "types": ["administrative_area_level_2", "political"]}, {"long_name": "Pernambuco", "short_name": "PE", "types": ["administrative_area_level_1", "political"]}, {"long_name": "Brasil", "short_name": "BR", "types": ["country", "political"]}, {"long_name": "55540-000", "short_name": "55540-000", "types": ["postal_code"]}], "formatted_address": "Tv. Agamenon Magalhães - Palmares, PE, 55540-000, Brasil", "geometry": {"bounds": {"northeast": {"lat": -8.6716991, "lng": -35.5876697}, "southwest": {"lat": -8.6736186, "lng": -35.5904048}}, "location": {"lat": -8.6726909, "lng": -35.5889938}, "location_type": "GEOMETRIC_CENTER", "viewport": {"northeast": {"lat": -8.671309869708498, "lng": -35.5876697}, "southwest": {"lat": -8.674007830291503, "lng": -35.5904048}}}, "partial_match": true, "place_id": "ChIJJRe-xnSgAAcRm9VygBrT1wQ", "types": ["route"]}, {"address_components": [{"long_name": "Rua Agamenon Magalhães", "short_name": "R. Agamenon Magalhães", "types": ["route"]}, {"long_name": "Palmares", "short_name": "Palmares", "types": ["administrative_area_level_4", "political"]}, {"long_name": "Palmares", "short_name": "Palmares", "types": ["administrative_area_level_2", "political"]}, {"long_name": "Pernambuco", "short_name": "PE", "types": ["administrative_area_level_1", "political"]}, {"long_name": "Brasil", "short_name": "BR", "types": ["country", "political"]}, {"long_name": "55540-000", "short_name": "55540-000", "types": ["postal_code"]}], "formatted_address": "R. Agamenon Magalhães - Palmares, PE, 55540-000, Brasil", "geometry": {"bounds": {"northeast": {"lat": -8.673274400000002, "lng": -35.5889945}, "southwest": {"lat": -8.674486, "lng": -35.5902338}}, "location": {"lat": -8.6738664, "lng": -35.5896533}, "location_type": "GEOMETRIC_CENTER", "viewport": {"northeast": {"lat": -8.6725312197085, "lng": -35.5882651697085}, "southwest": {"lat": -8.675229180291504, "lng": -35.5909631302915}}}, "partial_match": true, "place_id": "ChIJuSbjnnSgAAcR__gRHaC-0-8", "types": ["route"]}], "status": "OK"}}
{"row_id": "PE_0009", "candidate_number": 3, "pattern": "addr_muni_state", "query": "BR 101, Km 185, s/n - Engenho Quilombo dos Palmares, Palmares, PERNAMBUCO, Brasil", "status": "OK", "error": null, "score": -5, "attempted_at": "2026-04-19T15:47:40Z", "response": {"results": [{"address_components": [{"long_name": "KM 185", "short_name": "KM 185", "types": ["street_number"]}, {"long_name": "BR-101", "short_name": "BR-101", "types": ["route"]}, {"long_name": "Guaporanga", "short_name": "Guaporanga", "types": ["administrative_area_level_4", "political"]}, {"long_name": "Biguaçu", "short_name": "Biguaçu", "types": ["administrative_area_level_2", "political"]}, {"long_name": "Santa Catarina", "short_name": "SC", "types": ["administrative_area_level_1", "political"]}, {"long_name": "Brasil", "short_name": "BR", "types": ["country", "political"]}, {"long_name": "88168-400", "short_name": "88168-400", "types": ["postal_code"]}], "formatted_address": "BR-101, KM 185 - Guaporanga, Biguaçu - SC, 88168-400, Brasil", "geometry": {"location": {"lat": -27.4227872, "lng": -48.6243631}, "location_type": "ROOFTOP", "viewport": {"northeast": {"lat": -27.4214982197085, "lng": -48.6230048197085}, "southwest": {"lat": -27.4241961802915, "lng": -48.6257027802915}}}, "navigation_points": [{"location": {"latitude": -27.4228451, "longitude": -48.6243566}}], "partial_match": true, "place_id": "ChIJsbImLytRJ5URwRhtC6dBRAI", "plus_code": {"compound_code": "H9GG+V7 Tijuquinhas - Guaporanga, Biguaçu - SC", "global_code": "584HH9GG+V7"}, "types": ["establishment", "laundry", "point_of_interest"]}], "status": "OK"}}
{"row_id": "PE_0009", "candidate_number": 4, "pattern": "unit_addr_muni_state", "query": "Hospital Regional Sílvio Magalhães, BR 101, Km 185, s/n - Engenho Quilombo dos Palmares, Palmares, PERNAMBUCO, Brasil", "status": "OK", "error": null, "score": -5, "attempted_at": "2026-04-19T15:47:41Z", "response": {"results": [{"address_components": [{"long_name": "KM 185", "short_name": "KM 185", "types": ["street_number"]}, {"long_name": "BR-101", "short_name": "BR-101", "types": ["route"]}, {"long_name": "Guaporanga", "short_name": "Guaporanga", "types": ["administrative_area_level_4", "political"]}, {"long_name": "Biguaçu", "short_name": "Biguaçu", "types": ["administrative_area_level_2", "political"]}, {"long_name": "Santa Catarina", "short_name": "SC", "types": ["administrative_area_level_1", "political"]}, {"long_name": "Brasil", "short_name": "BR", "types": ["country", "political"]}, {"long_name": "88168-400", "short_name": "88168-400", "types": ["postal_code"]}], "formatted_address": "BR-101, KM 185 - Guaporanga, Biguaçu - SC, 88168-400, Brasil", "geometry": {"location": {"lat": -27.4227872, "lng": -48.6243631}, "location_type": "ROOFTOP", "viewport": {"northeast": {"lat": -27.4214982197085, "lng": -48.6230048197085}, "southwest": {"lat": -27.4241961802915, "lng": -48.6257027802915}}}, "navigation_points": [{"location": {"latitude": -27.4228451, "longitude": -48.6243566}}], "partial_match": true, "place_id": "ChIJsbImLytRJ5URwRhtC6dBRAI", "plus_code": {"compound_code": "H9GG+V7 Tijuquinhas - Guaporanga, Biguaçu - SC", "global_code": "584HH9GG+V7"}, "types": ["establishment", "laundry", "point_of_interest"]}], "status": "OK"}}
{"row_id": "PR_0031", "candidate_number": 1, "pattern": "unit_muni_state", "query": "Hospital Nossa Senhora da Aparecida - APMI, Capitão Leônidas Marques, PARANÁ, Brasil", "status": "OK", "error": null, "score": 35, "attempted_at": "2026-04-19T15:47:41Z", "response": {"results": [{"address_components": [{"long_name": "Capitão Leônidas Marques", "short_name": "Cap. Leônidas Marques", "types": ["locality", "political"]}, {"long_name": "Capitão Leônidas Marques", "short_name": "Cap. Leônidas Marques", "types": ["administrative_area_level_4", "political"]}, {"long_name": "Capitão Leônidas Marques", "short_name": "Cap. Leônidas Marques", "types": ["administrative_area_level_2", "political"]}, {"long_name": "Paraná", "short_name": "PR", "types": ["administrative_area_level_1", "political"]}, {"long_name": "Brasil", "short_name": "BR", "types": ["country", "political"]}, {"long_name": "85790-000", "short_name": "85790-000", "types": ["postal_code"]}], "formatted_address": "Cap. Leônidas Marques, PR, 85790-000, Brasil", "geometry": {"bounds": {"northeast": {"lat": -25.472971, "lng": -53.593581}, "southwest": {"lat": -25.5045506, "lng": -53.6234676}}, "location": {"lat": -25.4861608, "lng": -53.6101974}, "location_type": "APPROXIMATE", "viewport": {"northeast": {"lat": -25.472971, "lng": -53.593581}, "southwest": {"lat": -25.5045506, "lng": -53.6234676}}}, "partial_match": true, "place_id": "ChIJUcVwW3kR8ZQR2BUCsd5j3ZU", "types": ["locality", "political"]}, {"address_components": [{"long_name": "Nossa Senhora da Aparecid", "short_name": "Nossa Sra. da Aparecid", "types": ["locality", "political"]}, {"long_name": "Nossa Senhora da Aparecida", "short_name": "Nossa Sra. da Aparecida", "types": ["administrative_area_level_4", "political"]}, {"long_name": "Rolândia", "short_name": "Rolândia", "types": ["administrative_area_level_2", "political"]}, {"long_name": "Paraná", "short_name": "PR", "types": ["administrative_area_level_1", "political"]}, {"long_name": "Brasil", "short_name": "BR", "types": ["country", "political"]}, {"long_name": "86600-000", "short_name": "86600-000", "types": ["postal_code"]}], "formatted_address": "Nossa Sra. da Aparecid - Nossa Sra. da Aparecida, Rolândia - PR, 86600-000, Brasil", "geometry": {"location": {"lat": -23.2085414, "lng": -51.3727009}, "location_type": "APPROXIMATE", "viewport": {"northeast": {"lat": -23.20719241970849, "lng": -51.3713519197085}, "southwest": {"lat": -23.2098903802915, "lng": -51.3740498802915}}}, "partial_match": true, "place_id": "ChIJAxL9rjyq7JQREPWvwCVtsD4", "types": ["locality", "political"]}, {"address_components": [{"long_name": "Nossa Senhora da Aparecida", "short_name": "Nossa Sra. da Aparecida", "types": ["administrative_area_level_4", "political"]}, {"long_name": "Rolândia", "short_name": "Rolândia", "types": ["administrative_area_level_2", "political"]}, {"long_name": "Paraná", "short_name": "PR", "types": ["administrative_area_level_1", "political"]}, {"long_name": "Brasil", "short_name": "BR", "types": ["country", "political"]}, {"long_name": "86600-000", "short_name": "86600-000", "types": ["postal_code"]}], "formatted_address": "Nossa Sra. da Aparecida, Rolândia - PR, 86600-000, Brasil", "geometry": {"bounds": {"northeast": {"lat": -23.1697549, "lng": -51.2987019}, "southwest": {"lat": -23.2671922, "lng": -51.4049474}}, "location": {"lat": -23.2193949, "lng": -51.3575028}, "location_type": "APPROXIMATE", "viewport": {"northeast": {"lat": -23.1697549, "lng": -51.2987019}, "southwest": {"lat": -23.2671922, "lng": -51.4049474}}}, "partial_match": true, "place_id": "ChIJZQpEWuOp7JQR65zyhcdzboE", "types": ["administrative_area_level_4", "political"]}], "status": "OK"}}
{"row_id": "PR_0031", "candidate_number": 2, "pattern": "unit_muni_uf", "query": "Hospital Nossa Senhora da Aparecida - APMI, Capitão Leônidas Marques - PR, Brasil", "status": "OK", "error": null, "score": 35, "attempted_at": "2026-04-19T15:47:41Z", "response": {"results": [{"address_components": [{"long_name": "Capitão Leônidas Marques", "short_name": "Cap. Leônidas Marques", "types": ["locality", "political"]}, {"long_name": "Capitão Leônidas Marques", "short_name": "Cap. Leônidas Marques", "types": ["administrative_area_level_4", "political"]}, {"long_name": "Capitão Leônidas Marques", "short_name": "Cap. Leônidas Marques", "types": ["administrative_area_level_2", "political"]}, {"long_name": "Paraná", "short_name": "PR", "types": ["administrative_area_level_1", "political"]}, {"long_name": "Brasil", "short_name": "BR", "types": ["country", "political"]}, {"long_name": "85790-000", "short_name": "85790-000", "types": ["postal_code"]}], "formatted_address": "Cap. Leônidas Marques, PR, 85790-000, Brasil", "geometry": {"bounds": {"northeast": {"lat": -25.472971, "lng": -53.593581}, "southwest": {"lat": -25.5045506, "lng": -53.6234676}}, "location": {"lat": -25.4861608, "lng": -53.6101974}, "location_type": "APPROXIMATE", "viewport": {"northeast": {"lat": -25.472971, "lng": -53.593581}, "southwest": {"lat": -25.5045506, "lng": -53.6234676}}}, "partial_match": true, "place_id": "ChIJUcVwW3kR8ZQR2BUCsd5j3ZU", "types": ["locality", "political"]}, {"address_components": [{"long_name": "Nossa Senhora da Aparecid", "short_name": "Nossa Sra. da Aparecid", "types": ["locality", "political"]}, {"long_name": "Nossa Senhora da Aparecida", "short_name": "Nossa Sra. da Aparecida", "types": ["administrative_area_level_4", "political"]}, {"long_name": "Rolândia", "short_name": "Rolândia", "types": ["administrative_area_level_2", "political"]}, {"long_name": "Paraná", "short_name": "PR", "types": ["administrative_area_level_1", "political"]}, {"long_name": "Brasil", "short_name": "BR", "types": ["country", "political"]}, {"long_name": "86600-000", "short_name": "86600-000", "types": ["postal_code"]}], "formatted_address": "Nossa Sra. da Aparecid - Nossa Sra. da Aparecida, Rolândia - PR, 86600-000, Brasil", "geometry": {"location": {"lat": -23.2085414, "lng": -51.3727009}, "location_type": "APPROXIMATE", "viewport": {"northeast": {"lat": -23.20719241970849, "lng": -51.3713519197085}, "southwest": {"lat": -23.2098903802915, "lng": -51.3740498802915}}}, "partial_match": true, "place_id": "ChIJAxL9rjyq7JQREPWvwCVtsD4", "types": ["locality", "political"]}, {"address_components": [{"long_name": "Nossa Senhora da Aparecida", "short_name": "Nossa Sra. da Aparecida", "types": ["administrative_area_level_4", "political"]}, {"long_name": "Rolândia", "short_name": "Rolândia", "types": ["administrative_area_level_2", "political"]}, {"long_name": "Paraná", "short_name": "PR", "types": ["administrative_area_level_1", "political"]}, {"long_name": "Brasil", "short_name": "BR", "types": ["country", "political"]}, {"long_name": "86600-000", "short_name": "86600-000", "types": ["postal_code"]}], "formatted_address": "Nossa Sra. da Aparecida, Rolândia - PR, 86600-000, Brasil", "geometry": {"bounds": {"northeast": {"lat": -23.1697549, "lng": -51.2987019}, "southwest": {"lat": -23.2671922, "lng": -51.4049474}}, "location": {"lat": -23.2193949, "lng": -51.3575028}, "location_type": "APPROXIMATE", "viewport": {"northeast": {"lat": -23.1697549, "lng": -51.2987019}, "southwest": {"lat": -23.2671922, "lng": -51.4049474}}}, "partial_match": true, "place_id": "ChIJZQpEWuOp7JQR65zyhcdzboE", "types": ["administrative_area_level_4", "political"]}], "status": "OK"}}
{"row_id": "PR_0031", "candidate_number": 3, "pattern": "addr_muni_state", "query": "Rua Pedro Dalibra, s/n - Cidade Baixa, Capitão Leônidas Marques, PARANÁ, Brasil", "status": "OK", "error": null, "score": -75, "attempted_at": "2026-04-19T15:47:42Z", "response": {"results": [{"address_components": [{"long_name": "Cidade Baixa", "short_name": "Cidade Baixa", "types": ["political", "sublocality", "sublocality_level_1"]}, {"long_name": "Porto Alegre", "short_name": "Porto Alegre", "types": ["administrative_area_level_2", "political"]}, {"long_name": "Rio Grande do Sul", "short_name": "RS", "types": ["administrative_area_level_1", "political"]}, {"long_name": "Brasil", "short_name": "BR", "types": ["country", "political"]}], "formatted_address": "Cidade Baixa, Porto Alegre - RS, Brasil", "geometry": {"bounds": {"northeast": {"lat": -30.03474779999999, "lng": -51.2163806}, "southwest": {"lat": -30.043926, "lng": -51.2285653}}, "location": {"lat": -30.0401669, "lng": -51.2228614}, "location_type": "APPROXIMATE", "viewport": {"northeast": {"lat": -30.03474779999999, "lng": -51.2163806}, "southwest": {"lat": -30.043926, "lng": -51.2285653}}}, "partial_match": true, "place_id": "ChIJoRwLwv94GZUR7zmALAtDhB4", "types": ["political", "sublocality", "sublocality_level_1"]}, {"address_components": [{"long_name": "Rua São Pedro", "short_name": "R. São Pedro", "types": ["route"]}, {"long_name": "Capitão Leônidas Marques", "short_name": "Cap. Leônidas Marques", "types": ["administrative_area_level_4", "political"]}, {"long_name": "Capitão Leônidas Marques", "short_name": "Cap. Leônidas Marques", "types": ["administrative_area_level_2", "political"]}, {"long_name": "Paraná", "short_name": "PR", "types": ["administrative_area_level_1", "political"]}, {"long_name": "Brasil", "short_name": "BR", "types": ["country", "political"]}, {"long_name": "85790-000", "short_name": "85790-000", "types": ["postal_code"]}], "formatted_address": "R. São Pedro - Cap. Leônidas Marques, PR, 85790-000, Brasil", "geometry": {"bounds": {"northeast": {"lat": -25.4765447, "lng": -53.6149863}, "southwest": {"lat": -25.4838025, "lng": -53.6183706}}, "location": {"lat": -25.4802688, "lng": -53.6169806}, "location_type": "GEOMETRIC_CENTER", "viewport": {"northeast": {"lat": -25.4765447, "lng": -53.6149863}, "southwest": {"lat": -25.4838025, "lng": -53.6183706}}},